property_id,lat,lng,addr_street,suburb,lga,closet_train_station_id,distance_to_closest_train_station,travel_min_to_MC,direct_journey_flag,number_of_houses,number_of_units,municipality,aus_born_perc,median_income,median_house_price,population,closest_train_station_id
2629,-37.812851,144.875579,10 Adaleigh Street,YARRAVILLE,MITCHELL,19996,1.306,,0,5855,2072,Maribyrnong,67,1583,1148100,11645,19996.0
62474,-37.829105,145.238813,10 Devon Avenue,HEATHMONT,HORSHAM,19871,0.512,17.08910891089109,1,3459,1027,Maroondah,80,1297,1083000,16322,19871.0
75515,-37.899528,145.048075,9 Kooringa Road,CARNEGIE,MELBOURNE,19941,0.849,13.927272727272728,1,4596,5791,Glen Eira,64,1287,1406500,30031,19941.0
22377,-37.749881,144.960006,24 White Street,COBURG,MOONEE VALLEY,19966,0.537,10.0,1,10323,4557,Moreland,63,1268,1129500,29021,19966.0
78258,-37.927869,145.174585,6 Whitehaven Crescent,MULGRAVE,MACEDON RANGES,19913,3.041,17.03585657370518,1,7213,1477,Monash,60,1348,1022600,22093,19913.0
44010,-37.713438,145.10559,1/205 Nepean Street,GREENSBOROUGH,GLEN EIRA,19985,1.081,22.39189189189189,1,7426,2533,Banyule,83,1524,984000,26045,19985.0
91286,-37.980361,145.04077,15 Coreen Avenue,BEAUMARIS,TOWONG,19866,1.948,18.83823529411765,1,5041,1732,Bayside,79,1845,1882800,17536,19866.0
10484,-37.78585052,144.9238586,38 Coronet Street,FLEMINGTON,WHITTLESEA,20040,0.479,4.8,1,1877,3086,Moonee Valley,62,1401,1069400,14523,20040.0
41160,-37.702149,145.060232,8 Elizabeth Grove,BUNDOORA,WODONGA,19984,2.295,19.841726618705035,1,8943,3243,Whittlesea,69,1172,876900,24119,19984.0
54979,-37.834402,145.068616,12 Westbourne Grove,CAMBERWELL,MELBOURNE,19851,0.208,10.3,1,7459,4358,Boroondara,77,2122,2235400,15537,19851.0
58896,-37.815195,145.177577,32 O'Shannessy Street,NUNAWADING,STONNINGTON,19899,0.647,14.655339805825243,1,4033,2270,Whitehorse,70,1202,1171100,20796,19899.0
3440,-37.817442,144.863497,37 Stanger Street,YARRAVILLE,MITCHELL,20022,2.026,7.9523809523809526,1,5855,2072,Maribyrnong,67,1583,1148100,11645,20022.0
29035,-37.8010731,145.0004394,42 Valiant Street,ABBOTSFORD,BANYULE,19975,0.568,8.23076923076923,1,2304,4706,Yarra,68,1797,1299400,4025,19975.0
55919,-37.8405821,145.0782377,70A Glyndon Road,CAMBERWELL,MELBOURNE,19850,0.446,11.181818181818182,1,7459,4358,Boroondara,77,2122,2235400,15537,19850.0
47054,-37.716602,145.168979,32 Nyora Road,ELTHAM,FRANKSTON,19987,1.894,26.24418604651163,1,6040,1782,Nillumbik,85,1923,1178700,28827,19987.0
54372,-37.829152,145.042268,3 Hunter Street,HAWTHORN,YARRA,19903,0.815,6.752380952380952,1,5753,11459,Boroondara,72,1627,2103800,19166,19903.0
21611,-37.75869751,144.9569397,88 Tinning Street,BRUNSWICK,MARIBYRNONG,19967,0.435,8.11111111111111,1,8835,8041,Moreland,62,1433,1265800,20155,19967.0
91710,-37.97451401,145.0393219,50 Morey Road,BEAUMARIS,TOWONG,19866,1.598,18.83823529411765,1,5041,1732,Bayside,79,1845,1882800,17536,19866.0
87044,-37.9146834,144.993452,7/17 Well Street,BRIGHTON,HUME,19951,0.255,,0,8625,6345,Bayside,77,2200,2483600,20135,19951.0
77473,-37.929904,145.160242,13 Bellevue,MULGRAVE,MACEDON RANGES,19914,2.109,15.875,1,7213,1477,Monash,60,1348,1022600,22093,19914.0
80776,-37.9849246,145.2088439,13/24 Rodd Street,DANDENONG,CARDINIA,19888,0.567,22.110294117647058,1,8074,9600,Greater Dandenong,48,899,685100,45248,19888.0
93124,-37.986449,145.083796,29 Robert Street,PARKDALE,STONNINGTON,19864,0.987,21.428571428571427,1,4160,2433,Kingston,76,1492,1341800,24045,19864.0
72269,-37.851677,145.27172,3 Beilby Street,BAYSWATER,INDIGO,19870,1.151,19.363636363636363,1,4737,3089,Knox,77,1186,865500,19945,19870.0
69067,-37.860817,145.03709,31 Dixon Street,MALVERN,BAW BAW,19944,0.914,7.886363636363637,1,3622,3241,Stonnington,78,2047,2337300,10201,19944.0
19924,-37.794226,144.957188,20 Bayles Street,PARKVILLE,MURRINDINDI,19970,1.513,6.333333333333333,1,1058,2943,Melbourne,71,1480,1849500,6692,19970.0
67975,-37.84781647,145.0087585,22 Ruabon Road,TOORAK,MANNINGHAM,19946,0.56,7.181818181818182,1,4088,5974,Stonnington,72,1977,2752300,12797,19946.0
87327,-37.94248581,145.0188751,12 James Crescent,HAMPTON,WYNDHAM,19948,1.53,,0,4651,2612,Bayside,78,1653,2032200,11231,19948.0
589,-37.79913712,144.8883057,205 Gordon Street,FOOTSCRAY,WHITTLESEA,20023,0.396,7.277777777777778,1,5286,6864,Maribyrnong,49,1181,869400,16926,20023.0
17944,-37.66736984,144.9460297,1 Washington Street,DALLAS,MOORABOOL,19960,0.157,16.6875,1,2207,315,Hume,58,762,514300,18510,19960.0
79298,-37.950902,145.159327,66 Sandown Road,SPRINGVALE,GREATER BENDIGO,19913,0.539,17.03585657370518,1,6280,4315,Greater Dandenong,36,884,895800,18147,19913.0
41370,-37.748986,145.070195,1/14 Edgar Street,HEIDELBERG,MONASH,19936,0.768,16.403973509933774,1,2066,1742,Banyule,77,1551,1213100,21826,19936.0
73438,-37.866747,145.282595,29A Pine Crescent,BORONIA,TOWONG,19869,0.718,20.794392523364486,1,8285,4281,Knox,79,1162,832500,20314,19869.0
15325,-37.738088,144.91551,44 Hayes Road,STRATHMORE,KNOX,20036,1.122,9.333333333333334,1,3101,749,Moonee Valley,81,1634,1643800,10591,20036.0
92334,-37.985182,145.052806,5 Sea Parade,MENTONE,WEST WIMMERA,19865,1.146,20.61904761904762,1,4507,3922,Kingston,76,1288,1332300,14158,19865.0
52937,-37.816085,144.99757,3 Bosisto Street,RICHMOND,EAST GIPPSLAND,19978,0.555,7.690476190476191,1,8875,13869,Yarra,65,1731,1389100,24112,19978.0
62992,-37.83381271,145.2503967,5 The Greenway,HEATHMONT,HORSHAM,19871,0.798,17.08910891089109,1,3459,1027,Maroondah,80,1297,1083000,16322,19871.0
63719,-37.783282,145.264964,18 Melton Grove,CROYDON,CARDINIA,19878,1.929,20.65573770491803,1,9705,5573,Maroondah,81,1267,902900,37491,19878.0
29877,-37.77517319,145.0141602,3 Hillside Avenue,NORTHCOTE,MURRINDINDI,19930,0.506,12.693877551020408,1,8461,5349,Darebin,69,1563,1630800,21000,19930.0
50533,-37.7572403,145.1383667,27 Mandella Street,TEMPLESTOWE,MOUNT ALEXANDER,19986,4.899,23.86,1,5734,1487,Manningham,64,1789,1759800,16180,19986.0
53973,-37.8139534,145.020874,1/10 Pine Street,HAWTHORN,YARRA,19905,0.894,5.05,1,5753,11459,Boroondara,72,1627,2103800,19166,19905.0
71605,-37.857707,145.216929,5 Caulfield Court,WANTIRNA,CENTRAL GOLDFIELDS,19871,4.074,17.08910891089109,1,4861,1165,Knox,70,1463,1071300,31889,19871.0
16501,-37.69836426,144.9389191,133 Morell Street,GLENROY,WYNDHAM,19961,1.776,13.8,1,7882,4021,Moreland,66,1004,743900,27707,19961.0
91249,-37.984895,145.034868,14 Agnes Street,BEAUMARIS,TOWONG,19866,2.666,18.83823529411765,1,5041,1732,Bayside,79,1845,1882800,17536,19866.0
614,-37.79486084,144.8936005,21 White Street,FOOTSCRAY,WHITTLESEA,20024,0.871,6.733333333333333,1,5286,6864,Maribyrnong,49,1181,869400,16926,20024.0
60942,-37.8416723,145.1844218,8 Kingsley Avenue,VERMONT,CENTRAL GOLDFIELDS,19899,2.491,14.655339805825243,1,3636,1030,Whitehorse,71,1459,1186300,20802,19899.0
44016,-37.714788,145.109591,1/24 Plenty Lane,GREENSBOROUGH,GLEN EIRA,19986,1.052,23.86,1,7426,2533,Banyule,83,1524,984000,26045,19986.0
69320,-37.844971,145.037464,82 Elizabeth Street,MALVERN,BAW BAW,19911,0.617,,0,3622,3241,Stonnington,78,2047,2337300,10201,19911.0
172,-37.797152,144.890484,102 Creswick Street,FOOTSCRAY,WHITTLESEA,20024,0.602,6.733333333333333,1,5286,6864,Maribyrnong,49,1181,869400,16926,20024.0
81474,-37.984404,145.227526,7 Sarona Street,DANDENONG,CARDINIA,19888,1.68,22.110294117647058,1,8074,9600,Greater Dandenong,48,899,685100,45248,19888.0
85169,-37.87994766,144.9803162,99 Addison Street,ELWOOD,MORELAND,19955,1.386,,0,3628,8403,Port Phillip,72,1715,1874000,12829,19955.0
46665,-37.711138,145.152636,154 Bible Street,ELTHAM,FRANKSTON,19987,0.502,26.24418604651163,1,6040,1782,Nillumbik,85,1923,1178700,28827,19987.0
86056,-37.89621,145.002314,12 Hamilton Street,BRIGHTON,HUME,19953,0.172,,0,8625,6345,Bayside,77,2200,2483600,20135,19953.0
40473,-37.698119,145.06595,37 Cameron Parade,BUNDOORA,WODONGA,19984,2.124,19.841726618705035,1,8943,3243,Whittlesea,69,1172,876900,24119,19984.0
10889,-37.7859237,144.9294582,8 Finsbury Street,FLEMINGTON,WHITTLESEA,20040,0.162,4.8,1,1877,3086,Moonee Valley,62,1401,1069400,14523,20040.0
54521,-37.836665,145.04204,426 Auburn Road,HAWTHORN,YARRA,19910,0.83,,0,5753,11459,Boroondara,72,1627,2103800,19166,19910.0
31756,-37.73941422,145.0157166,115 Murray Road,PRESTON,BOROONDARA,20012,1.34,16.176470588235293,1,11418,7672,Darebin,63,1155,1075700,27067,20012.0
83266,-37.885691,145.243141,65 Frudal Crescent,KNOXFIELD,SOUTHERN GRAMPIANS,19869,4.586,20.794392523364486,1,2723,1042,Knox,76,1310,909600,6617,19869.0
78516,-37.938486,145.150688,10 Glendale Road,SPRINGVALE,GREATER BENDIGO,19914,1.041,15.875,1,6280,4315,Greater Dandenong,36,884,895800,18147,19914.0
2924,-37.81454849,144.8687592,160 Roberts Street,YARRAVILLE,MITCHELL,20022,1.778,7.9523809523809526,1,5855,2072,Maribyrnong,67,1583,1148100,11645,20022.0
12783,-37.697734,144.755301,26 Chris Court,HILLSIDE,GREATER DANDENONG,20000,1.705,16.304347826086957,1,4717,798,Melton,64,1491,867300,27356,20000.0
24100,-37.71016,144.970481,18 Pitt Street,FAWKNER,MONASH,19962,1.006,12.785714285714286,1,4754,1266,Moreland,53,865,745500,12899,19962.0
59101,-37.825649,145.173413,7 Lewis Court,NUNAWADING,STONNINGTON,19899,0.577,14.655339805825243,1,4033,2270,Whitehorse,70,1202,1171100,20796,19899.0
80703,-37.985054,145.225841,10 Ross Street,DANDENONG,CARDINIA,19888,1.516,22.110294117647058,1,8074,9600,Greater Dandenong,48,899,685100,45248,19888.0
20903,-37.764161,144.956946,26a Cliff Street,BRUNSWICK,MARIBYRNONG,19968,0.459,7.125,1,8835,8041,Moreland,62,1433,1265800,20155,19968.0
92320,-37.979945,145.085475,4A Daniel Court,MENTONE,WEST WIMMERA,19864,1.668,21.428571428571427,1,4507,3922,Kingston,76,1288,1332300,14158,19864.0
29109,-37.807494,144.997807,70 William Street,ABBOTSFORD,BANYULE,19976,0.486,8.267857142857142,1,2304,4706,Yarra,68,1797,1299400,4025,19976.0
17518,-37.71512,144.945256,6/75 South Street,HADFIELD,WYNDHAM,19962,1.347,12.785714285714286,1,2326,712,Moreland,66,1004,805000,27707,19962.0
58398,-37.82829666,145.1529236,98 Blackburn Road,BLACKBURN,GREATER GEELONG,19898,0.951,14.05703422053232,1,4821,2501,Whitehorse,75,1387,1485900,27564,19898.0
76987,-37.923747,145.125302,75 Kanooka Grove,CLAYTON,HINDMARSH,19915,0.431,14.25108225108225,1,5171,5343,Monash,48,962,1017200,18901,19915.0
67782,-37.774021,145.348677,95 Lakeview Drive,LILYDALE,FRANKSTON,19876,2.061,26.917525773195877,1,5989,2379,Yarra Ranges,82,1284,908900,13615,19876.0
21442,-37.778476,144.966349,631 Park Street,BRUNSWICK,MARIBYRNONG,19969,0.776,7.142857142857143,1,8835,8041,Moreland,62,1433,1265800,20155,19969.0
46117,-37.722004,145.113678,48 Para Road,MONTMORENCY,PORT PHILLIP,19986,1.017,23.86,1,3368,1434,Banyule,87,1457,1111000,8154,19986.0
31397,-37.76268,145.005282,63 St David Street,THORNBURY,LATROBE,20015,0.741,13.214285714285714,1,6018,4275,Darebin,63,1275,1361700,16671,20015.0
5821,-37.792801,144.851137,6 Beachley Street,BRAYBROOK,HUME,20022,1.263,7.9523809523809526,1,2822,1654,Maribyrnong,52,792,755400,6573,20022.0
33656,-37.711175,145.01691,115 Royal Parade,RESERVOIR,EAST GIPPSLAND,20009,0.746,19.1,1,16913,8713,Darebin,63,972,861800,45591,20009.0
4962,-37.86958313,144.8251495,171 Queen Street,ALTONA,BRIMBANK,19926,0.479,,0,4843,2394,Hobsons Bay,70,1160,1139500,11742,19926.0
50610,-37.751815,145.131824,63 Porter Street,TEMPLESTOWE,MOUNT ALEXANDER,19986,4.165,23.86,1,5734,1487,Manningham,64,1789,1759800,16180,19986.0
32155,-37.736356,144.992049,1A Margtmary Avenue,PRESTON,BOROONDARA,20012,0.789,16.176470588235293,1,11418,7672,Darebin,63,1155,1075700,27067,20012.0
82785,-37.903382,145.268229,44 Kilcunda Drive,ROWVILLE,BALLARAT,19868,3.385,21.208695652173912,1,9231,1496,Knox,71,1699,1069100,28725,19868.0
66668,-37.767972,145.321619,7 Wainewright Avenue,MOOROOLBARK,WEST WIMMERA,19877,2.036,22.9618320610687,1,7655,1413,Yarra Ranges,80,1360,874500,18998,19877.0
81835,-37.9981,145.238871,16 Oak Avenue,DOVETON,HINDMARSH,19888,2.712,22.110294117647058,1,3150,953,Casey,59,819,602200,9801,19888.0
90371,-37.969099,145.053005,25 Glebe Avenue,CHELTENHAM,YARRA RANGES,19866,0.305,18.83823529411765,1,8087,5856,Kingston,74,1233,1167300,18907,19866.0
67912,-37.846981,145.003796,188 Williams Road,TOORAK,MANNINGHAM,19947,0.303,6.618181818181818,1,4088,5974,Stonnington,72,1977,2752300,12797,19947.0
11139,-37.778428,144.936048,142 Mooltan Street,TRAVANCORE,WHITEHORSE,19971,1.119,5.6,1,415,1693,Moonee Valley,67,1512,1386700,17187,19971.0
50425,-37.771695,145.099614,9  Walter Street,BULLEEN,MARIBYRNONG,19935,3.793,15.848101265822784,1,4269,979,Manningham,58,1225,1322600,10590,19935.0
51609,-37.77826309,145.1183014,7 Cason Street,DONCASTER,MORELAND,20042,4.568,11.86808510638298,1,7598,4243,Manningham,58,1242,1446200,17447,20042.0
40726,-37.6939078,145.0528252,4a Dealing Court,BUNDOORA,WODONGA,19984,3.323,19.841726618705035,1,8943,3243,Whittlesea,69,1172,876900,24119,19984.0
10503,-37.792734,144.921108,4 Birch  Lane,KENSINGTON,SOUTH GIPPSLAND,20041,0.836,5.0,1,3940,4804,Melbourne,62,1401,1202200,14523,20041.0
95208,-37.920653,145.046532,22 Scotts Street,BENTLEIGH,HOBSONS BAY,19939,0.911,14.476923076923077,1,5799,3228,Glen Eira,72,1538,1649200,17630,19939.0
14145,-37.747062,144.914962,25 Marco Polo Street,ESSENDON,NILLUMBIK,20036,0.526,9.333333333333334,1,6869,5592,Moonee Valley,81,1571,1550000,22442,20036.0
13653,-37.745383,144.915059,1/8A Schofield Street,ESSENDON,NILLUMBIK,20036,0.556,9.333333333333334,1,6869,5592,Moonee Valley,81,1571,1550000,22442,20036.0
21534,-37.757404,144.970014,74 Davies Street,BRUNSWICK,MARIBYRNONG,19966,0.791,10.0,1,8835,8041,Moreland,62,1433,1265800,20155,19966.0
87203,-37.895869,144.995774,9 Murphy Street,BRIGHTON,HUME,19953,0.743,,0,8625,6345,Bayside,77,2200,2483600,20135,19953.0
55444,-37.834701,145.077394,29A Allambee Avenue,CAMBERWELL,MELBOURNE,19851,0.634,10.3,1,7459,4358,Boroondara,77,2122,2235400,15537,19851.0
53685,-37.813142,145.000839,7 Laity Street,RICHMOND,EAST GIPPSLAND,19977,0.794,7.448979591836735,1,8875,13869,Yarra,65,1731,1389100,24112,19977.0
42477,-37.737816,145.081341,62 Kambea Crescent,VIEWBANK,MANNINGHAM,19936,1.452,16.403973509933774,1,2434,356,Banyule,77,1551,1147300,21826,19936.0
26465,-37.58363342,144.91362,30 Mallacoota Way,CRAIGIEBURN,YARRA RANGES,40221,3.311,21.0,1,19933,1906,Hume,74,1349,643500,25491,40221.0
28182,-37.800904,144.979429,210 Young Street,FITZROY,NILLUMBIK,19843,1.267,1.0,1,3147,5530,Yarra,63,1483,1568000,9007,19843.0
45452,-37.69139099,145.0950775,7 Vabiro Court,GREENSBOROUGH,GLEN EIRA,19985,1.817,22.39189189189189,1,7426,2533,Banyule,83,1524,984000,26045,19985.0
83870,-37.850706,144.996295,31 Regent Street,PRAHRAN,BOROONDARA,19958,0.581,,0,4230,8324,Stonnington,66,1560,1706800,17776,19958.0
39989,-37.71063,145.056636,2 Woodlands Grove,BUNDOORA,WODONGA,19983,2.036,18.08641975308642,1,8943,3243,Whittlesea,69,1172,876900,24119,19983.0
80062,-37.99460983,145.1698914,3 Domain Drive,KEYSBOROUGH,KINGSTON,19889,2.635,19.59722222222222,1,9761,1578,Greater Dandenong,49,1253,1006400,16492,19889.0
35579,-37.71147156,145.0010071,79 Barton Street,RESERVOIR,EAST GIPPSLAND,20010,0.801,19.105263157894736,1,16913,8713,Darebin,63,972,861800,45591,20010.0
93487,-38.014563,145.09982,54 Eulinga Avenue,ASPENDALE,YARRIAMBIACK,19863,1.388,23.207142857142856,1,2432,1048,Kingston,76,1492,1424900,24045,19863.0
63917,-37.787121,145.271776,20a Broughton Avenue,CROYDON,CARDINIA,19878,1.208,20.65573770491803,1,9705,5573,Maroondah,81,1267,902900,37491,19878.0
91891,-37.981041,145.050613,96 Wells Road,BEAUMARIS,TOWONG,19865,1.28,20.61904761904762,1,5041,1732,Bayside,79,1845,1882800,17536,19865.0
60090,-37.8121109,145.2018585,52 Burnett Street,MITCHAM,PORT PHILLIP,19900,1.089,15.882096069868995,1,5802,3089,Whitehorse,76,1424,1128700,14482,19900.0
41662,-37.751187,145.059943,156 Brown Street,HEIDELBERG,MONASH,19935,0.658,15.848101265822784,1,2066,1742,Banyule,77,1551,1213100,21826,19935.0
29633,-37.782692,144.994091,1A Walker Street,NORTHCOTE,MURRINDINDI,20019,0.159,12.40495867768595,1,8461,5349,Darebin,69,1563,1630800,21000,20019.0
55223,-37.846396,145.095568,2 Lesley Street,CAMBERWELL,MELBOURNE,19849,1.443,12.083333333333334,1,7459,4358,Boroondara,77,2122,2235400,15537,19849.0
85106,-37.882967,144.985922,76 Spray Street,ELWOOD,MORELAND,19955,1.135,,0,3628,8403,Port Phillip,72,1715,1874000,12829,19955.0
44128,-37.700486,145.091993,11 Laura Court,GREENSBOROUGH,GLEN EIRA,19984,1.371,19.841726618705035,1,7426,2533,Banyule,83,1524,984000,26045,19984.0
18804,-37.668956,144.922782,4 Canni Court,BROADMEADOWS,WODONGA,44817,0.931,17.375,1,4395,1983,Hume,58,762,565700,18510,44817.0
20609,-37.762755,144.958583,16 Osborne Street,BRUNSWICK,MARIBYRNONG,19967,0.25,8.11111111111111,1,8835,8041,Moreland,62,1433,1265800,20155,19967.0
54496,-37.824553,145.022813,40 Evansdale Road,HAWTHORN,YARRA,19905,0.304,5.05,1,5753,11459,Boroondara,72,1627,2103800,19166,19905.0
58899,-37.813439,145.175953,326 Springfield Road,NUNAWADING,STONNINGTON,19899,0.803,14.655339805825243,1,4033,2270,Whitehorse,70,1202,1171100,20796,19899.0
51092,-37.78528595,145.1100464,24 Golf Hill Avenue,DONCASTER,MORELAND,19896,3.821,11.341269841269842,1,7598,4243,Manningham,58,1242,1446200,17447,19896.0
54113,-37.824562,145.036752,14 Oxley Road,HAWTHORN,YARRA,19904,0.346,6.0,1,5753,11459,Boroondara,72,1627,2103800,19166,19904.0
15822,-37.741486,144.884173,64 Coghlan Street,NIDDRIE,MANSFIELD,20037,3.25,7.5,1,2198,1140,Moonee Valley,69,1204,1148000,13979,20037.0
95580,-37.902009,145.054325,337 Koornang Road,ORMOND,MOIRA,19941,1.299,13.927272727272728,1,2378,2357,Glen Eira,72,1538,1746300,17630,19941.0
57811,-37.81322861,145.1581726,20 Larch Street,BLACKBURN,GREATER GEELONG,19898,1.046,14.05703422053232,1,4821,2501,Whitehorse,75,1387,1485900,27564,19898.0
78316,-37.928246,145.160465,7 Carson Street,MULGRAVE,MACEDON RANGES,19914,2.215,15.875,1,7213,1477,Monash,60,1348,1022600,22093,19914.0
18663,-37.685641,144.915986,30 Hales Crescent,JACANA,ALPINE,20030,0.431,15.533333333333333,1,860,147,Hume,58,762,577100,18510,20030.0
69977,-37.863837,145.097236,35 Douglas Street,ASHWOOD,DAREBIN,19839,1.31,,0,2378,1176,Monash,73,1469,1436500,12420,19839.0
84014,-37.849354,145.000717,42 Clarke Street,PRAHRAN,BOROONDARA,19947,0.545,6.618181818181818,1,4230,8324,Stonnington,66,1560,1706800,17776,19947.0
23970,-37.70614624,144.9700317,13 Link Pde,FAWKNER,MONASH,19961,1.156,13.8,1,4754,1266,Moreland,53,865,745500,12899,19961.0
89966,-37.9682637,145.0583768,13 Holmby Road,CHELTENHAM,YARRA RANGES,19866,0.38,18.83823529411765,1,8087,5856,Kingston,74,1233,1167300,18907,19866.0
37705,-37.659497,145.02756,7 Lionheart Court,EPPING,FRANKSTON,20005,0.823,24.90277777777778,1,13368,3047,Whittlesea,73,1283,673200,19624,20005.0
82121,-37.984417,145.23368,34 Crimson Drive,DOVETON,HINDMARSH,19888,2.191,22.110294117647058,1,3150,953,Casey,59,819,602200,9801,19888.0
25491,-37.590096,144.931422,15 Keysborough Street,CRAIGIEBURN,YARRA RANGES,40221,1.674,21.0,1,19933,1906,Hume,74,1349,643500,25491,40221.0
76286,-37.905312,145.1023,51 William Street,OAKLEIGH,WANGARATTA,19916,0.635,12.677272727272728,1,3155,1636,Monash,65,1340,1301400,16280,19916.0
35230,-37.728731,145.029701,57 Crevelli Street,RESERVOIR,EAST GIPPSLAND,20011,2.371,17.166666666666668,1,16913,8713,Darebin,63,972,861800,45591,20011.0
31692,-37.751139,145.019831,101 Raglan Street,PRESTON,BOROONDARA,20013,1.84,15.1875,1,11418,7672,Darebin,63,1155,1075700,27067,20013.0
44259,-37.694562,145.102558,14 Birrakay Court,GREENSBOROUGH,GLEN EIRA,19985,1.159,22.39189189189189,1,7426,2533,Banyule,83,1524,984000,26045,19985.0
90466,-37.973037,145.060056,3 Booker Street,CHELTENHAM,YARRA RANGES,19866,0.859,18.83823529411765,1,8087,5856,Kingston,74,1233,1167300,18907,19866.0
37736,-37.64868546,145.0314026,7/16 Rufus Street,EPPING,FRANKSTON,20005,0.427,24.90277777777778,1,13368,3047,Whittlesea,73,1283,673200,19624,20005.0
36315,-37.66369629,145.0357513,24 Beaumont Crescent,LALOR,KINGSTON,20005,1.353,24.90277777777778,1,8358,1216,Whittlesea,52,919,678600,20717,20005.0
93267,-38.001504,145.091603,35 Ormond Street,MORDIALLOC,PORT PHILLIP,19863,0.663,23.207142857142856,1,2949,2322,Kingston,76,1492,1228700,24045,19863.0
48783,-37.803308,145.031069,86 Brougham Street,KEW,SOUTH GIPPSLAND,19904,2.076,6.0,1,8044,6097,Boroondara,73,2022,2332200,21677,19904.0
96038,-37.929854,145.044878,6 Paschal Street,BENTLEIGH,HOBSONS BAY,19937,0.873,16.14074074074074,1,5799,3228,Glen Eira,72,1538,1649200,17630,19937.0
63456,-37.784609,145.269676,12 Kirtain Drive,CROYDON,CARDINIA,19878,1.541,20.65573770491803,1,9705,5573,Maroondah,81,1267,902900,37491,19878.0
2152,-37.779256,144.881645,31 Lindenow Street,MAIDSTONE,BAW BAW,20027,2.448,,0,2995,2208,Maribyrnong,56,1162,843300,19978,20027.0
8035,-37.761438,144.777856,11 Tussock Grove,CAIRNLEA,YARRA RANGES,20002,2.687,13.42361111111111,1,2159,192,Brimbank,57,1423,969000,14107,20002.0
24955,-37.585834,144.916833,10 Aura Way,CRAIGIEBURN,YARRA RANGES,40221,2.937,21.0,1,19933,1906,Hume,74,1349,643500,25491,40221.0
71594,-37.85876465,145.2385712,49 Brentwood Drive,WANTIRNA,CENTRAL GOLDFIELDS,19870,3.217,19.363636363636363,1,4861,1165,Knox,70,1463,1071300,31889,19870.0
18589,-37.6668396,144.9435577,28 Washington Street,DALLAS,MOORABOOL,19960,0.293,16.6875,1,2207,315,Hume,58,762,514300,18510,19960.0
93939,-38.068378,145.127332,43 Mernda Avenue,BONBEACH,QUEENSCLIFFE,19858,0.843,28.16,1,2249,1613,Kingston,76,1179,1114700,19121,19858.0
55395,-37.840004,145.084812,26 Sycamore Street,CAMBERWELL,MELBOURNE,19850,0.926,11.181818181818182,1,7459,4358,Boroondara,77,2122,2235400,15537,19850.0
75703,-37.894164,145.084593,13 Paddington Road,HUGHESDALE,BASS COAST,19918,0.616,11.596590909090908,1,2268,2190,Monash,65,1340,1374600,16280,19918.0
28671,-37.796089,144.987237,62 Budd Street,COLLINGWOOD,MOONEE VALLEY,19975,0.721,8.23076923076923,1,2122,4470,Yarra,60,1278,1275000,5113,19975.0
68639,-37.86028671,145.0207062,7 St Georges Road,ARMADALE,BRIMBANK,19945,0.444,7.012987012987013,1,2838,3841,Stonnington,73,1713,1925900,8428,19945.0
65607,-37.779045,145.314018,10 Anaba Court,MOOROOLBARK,WEST WIMMERA,19877,0.651,22.9618320610687,1,7655,1413,Yarra Ranges,80,1360,874500,18998,19877.0
83233,-37.886837,145.243118,53 Frudal Crescent,KNOXFIELD,SOUTHERN GRAMPIANS,19868,4.616,21.208695652173912,1,2723,1042,Knox,76,1310,909600,6617,19868.0
23748,-37.636367,144.889723,657 Somerton Road,GREENVALE,HORSHAM,40220,4.032,18.235294117647058,1,6480,251,Hume,72,1730,942100,9120,40220.0
73351,-37.864213,145.295582,25 Castlewood Drive,BORONIA,TOWONG,19869,1.069,20.794392523364486,1,8285,4281,Knox,79,1162,832500,20314,19869.0
29955,-37.761478,144.989575,34 Bird Avenue,NORTHCOTE,MURRINDINDI,20015,0.72,13.214285714285714,1,8461,5349,Darebin,69,1563,1630800,21000,20015.0
15299,-37.74108887,144.9265137,4 Upland Road,STRATHMORE,KNOX,20035,0.287,10.2,1,3101,749,Moonee Valley,81,1634,1643800,10591,20035.0
41518,-37.743049,145.086362,12 Fran Crescent,VIEWBANK,MANNINGHAM,19936,1.78,16.403973509933774,1,2434,356,Banyule,77,1551,1147300,21826,19936.0
84003,-37.854765,145.002712,41 Bowen Street,PRAHRAN,BOROONDARA,19957,0.949,,0,4230,8324,Stonnington,66,1560,1706800,17776,19957.0
18839,-37.665137,144.928752,4 Yinnar Street,DALLAS,MOORABOOL,44817,0.518,17.375,1,2207,315,Hume,58,762,514300,18510,44817.0
54264,-37.816468,145.039444,21 York Street,HAWTHORN,YARRA,19904,0.616,6.0,1,5753,11459,Boroondara,72,1627,2103800,19166,19904.0
7121,-37.795876,144.83131,90 Wright Street,SUNSHINE,KNOX,20021,0.829,11.08411214953271,1,4031,1779,Brimbank,52,929,883700,30677,20021.0
1032,-37.805004,144.901405,43 Hyde Street,FOOTSCRAY,WHITTLESEA,20025,0.464,5.75,1,5286,6864,Maribyrnong,49,1181,869400,16926,20025.0
2027,-37.7896609,144.8808683,22 Madden Street,MAIDSTONE,BAW BAW,20023,1.408,7.277777777777778,1,2995,2208,Maribyrnong,56,1162,843300,19978,20023.0
74216,-37.885016,145.030187,10 Neerim Road,CAULFIELD,MELTON,19942,1.18,12.32,1,1723,1630,Glen Eira,61,1547,1704100,15277,19942.0
46019,-37.710055,145.121115,3/96 Mountain View Road,MONTMORENCY,PORT PHILLIP,19986,0.585,23.86,1,3368,1434,Banyule,87,1457,1111000,8154,19986.0
46692,-37.705689,145.146801,160 Scenic Crescent,ELTHAM NORTH,ARARAT,19987,0.88,26.24418604651163,1,2175,118,Nillumbik,85,1923,1227100,28827,19987.0
12840,-37.711639,144.774489,29 Blackwood Way,DELAHEY,BULOKE,20000,1.17,16.304347826086957,1,2193,541,Brimbank,64,1491,648400,27356,20000.0
40274,-37.694115,145.071408,3 Balanda Court,BUNDOORA,WODONGA,19984,2.169,19.841726618705035,1,8943,3243,Whittlesea,69,1172,876900,24119,19984.0
65422,-37.80737686,145.3155975,51 Liverpool Road,KILSYTH,SURF COAST,19877,2.535,22.9618320610687,1,4209,1613,Yarra Ranges,82,1211,813100,12665,19877.0
79023,-37.94091,145.151696,38 Parsons Avenue,SPRINGVALE,GREATER BENDIGO,19913,0.97,17.03585657370518,1,6280,4315,Greater Dandenong,36,884,895800,18147,19913.0
48078,-37.812127,145.023055,2/9 Henry Street,KEW,SOUTH GIPPSLAND,19905,1.08,5.05,1,8044,6097,Boroondara,73,2022,2332200,21677,19905.0
33875,-37.717374,145.018901,15 Cuthbert Road,RESERVOIR,EAST GIPPSLAND,20010,1.05,19.105263157894736,1,16913,8713,Darebin,63,972,861800,45591,20010.0
91013,-37.963154,145.077488,8 Farm Road,CHELTENHAM,YARRA RANGES,19866,2.05,18.83823529411765,1,8087,5856,Kingston,74,1233,1167300,18907,19866.0
65562,-37.794262,145.322196,1/125 Cambridge Road,MOOROOLBARK,WEST WIMMERA,19877,1.365,22.9618320610687,1,7655,1413,Yarra Ranges,80,1360,874500,18998,19877.0
24824,-37.67290115,144.9693909,7 SYLVAN WAY,CAMPBELLFIELD,STRATHBOGIE,19960,2.135,16.6875,1,2830,1163,Hume,48,786,588600,5480,19960.0
1799,-37.789994,144.878979,14 Studley Street,MAIDSTONE,BAW BAW,20023,1.429,7.277777777777778,1,2995,2208,Maribyrnong,56,1162,843300,19978,20023.0
90019,-37.960239,145.052809,14 Garfield Street,CHELTENHAM,YARRA RANGES,19866,0.73,18.83823529411765,1,8087,5856,Kingston,74,1233,1167300,18907,19866.0
51430,-37.783458,145.132514,43 Turana Street,DONCASTER,MORELAND,20042,4.099,11.86808510638298,1,7598,4243,Manningham,58,1242,1446200,17447,20042.0
33385,-37.725482,145.02188,1 Rubicon Street,RESERVOIR,EAST GIPPSLAND,20010,1.623,19.105263157894736,1,16913,8713,Darebin,63,972,861800,45591,20010.0
94069,-38.05734,145.132639,99/100 Broadway,BONBEACH,QUEENSCLIFFE,19859,1.296,27.333333333333332,1,2249,1613,Kingston,76,1179,1114700,19121,19859.0
83939,-37.849823,145.002038,37 Mackay Street,PRAHRAN,BOROONDARA,19947,0.582,6.618181818181818,1,4230,8324,Stonnington,66,1560,1706800,17776,19947.0
18506,-37.68252945,144.9317017,23 Waranga Crescent,BROADMEADOWS,WODONGA,20030,1.067,15.533333333333333,1,4395,1983,Hume,58,762,565700,18510,20030.0
82982,-37.891395,145.252851,10 Coromandel Crescent South,KNOXFIELD,SOUTHERN GRAMPIANS,19868,3.878,21.208695652173912,1,2723,1042,Knox,76,1310,909600,6617,19868.0
7266,-37.73762131,144.8224487,178 Sunshine Avenue,KEALBA,BASS COAST,20002,2.13,13.42361111111111,1,1111,142,Brimbank,46,907,704200,54005,20002.0
95756,-37.928906,145.043885,40 Fromer Street,BENTLEIGH,HOBSONS BAY,19938,0.849,15.293650793650794,1,5799,3228,Glen Eira,72,1538,1649200,17630,19938.0
35128,-37.727423,145.030899,50 Nisbett Street,RESERVOIR,EAST GIPPSLAND,20010,2.41,19.105263157894736,1,16913,8713,Darebin,63,972,861800,45591,20010.0
26662,-37.5807,144.912694,37 Fermont Avenue,CRAIGIEBURN,YARRA RANGES,40221,3.581,21.0,1,19933,1906,Hume,74,1349,643500,25491,40221.0
30763,-37.757623,144.989087,149  Ballantyne Street,THORNBURY,LATROBE,20014,0.882,14.2,1,6018,4275,Darebin,63,1275,1361700,16671,20014.0
29110,-37.801696,144.99655,71 Studley Street,ABBOTSFORD,BANYULE,19975,0.337,8.23076923076923,1,2304,4706,Yarra,68,1797,1299400,4025,19975.0
80373,-37.983404,145.16065,57 Piccadilly Crescent,KEYSBOROUGH,KINGSTON,19890,2.298,19.260536398467433,1,9761,1578,Greater Dandenong,49,1253,1006400,16492,19890.0
7729,-37.782772,144.808189,13 Suspension Street,ARDEER,SWAN HILL,20004,1.561,11.692982456140351,1,1263,335,Brimbank,46,895,663400,10176,20004.0
5943,-37.793497,144.844491,1 Duke Street,SUNSHINE,KNOX,20021,1.161,11.08411214953271,1,4031,1779,Brimbank,52,929,883700,30677,20021.0
58304,-37.82052994,145.1397705,7 Minna Street,BLACKBURN,GREATER GEELONG,19897,0.087,13.988304093567251,1,4821,2501,Whitehorse,75,1387,1485900,27564,19897.0
35555,-37.709392,145.016261,76 Crookston Road,RESERVOIR,EAST GIPPSLAND,20009,0.617,19.1,1,16913,8713,Darebin,63,972,861800,45591,20009.0
20990,-37.766195,144.970721,3/103a Blyth Street,BRUNSWICK,MARIBYRNONG,19968,0.994,7.125,1,8835,8041,Moreland,62,1433,1265800,20155,19968.0
8465,-37.764887,144.786815,4 Breadalbane Avenue,CAIRNLEA,YARRA RANGES,20003,2.165,12.984496124031008,1,2159,192,Brimbank,57,1423,969000,14107,20003.0
51443,-37.792106,145.124778,46 Boyd Street,DONCASTER,MORELAND,20042,3.033,11.86808510638298,1,7598,4243,Manningham,58,1242,1446200,17447,20042.0
14722,-37.76228,144.891708,69 Clifton Street,ABERFELDIE,MITCHELL,20037,2.265,7.5,1,1410,453,Moonee Valley,81,1571,1926600,22442,20037.0
90662,-37.968444,145.057827,4 Holmby Road,CHELTENHAM,YARRA RANGES,19866,0.35,18.83823529411765,1,8087,5856,Kingston,74,1233,1167300,18907,19866.0
89496,-37.954859,145.011846,38 Tennyson Street,SANDRINGHAM,PYRENEES,19948,0.814,,0,3340,2563,Bayside,79,1836,1785000,8146,19948.0
58747,-37.80589,145.17066,23 Winifred Street,NUNAWADING,STONNINGTON,19899,1.68,14.655339805825243,1,4033,2270,Whitehorse,70,1202,1171100,20796,19899.0
96058,-37.922517,145.046674,6 Wood Street,BENTLEIGH,HOBSONS BAY,19939,1.022,14.476923076923077,1,5799,3228,Glen Eira,72,1538,1649200,17630,19939.0
70853,-37.874638,145.104327,6 Warrina Street,CHADSTONE,MELTON,19840,0.692,,0,3244,1608,Monash,65,1234,1217700,12357,19840.0
78391,-37.927561,145.174116,8 Sunrise Drive,MULGRAVE,MACEDON RANGES,19913,3.043,17.03585657370518,1,7213,1477,Monash,60,1348,1022600,22093,19913.0
72920,-37.860887,145.297103,13 Moncoe Street,BORONIA,TOWONG,19869,1.119,20.794392523364486,1,8285,4281,Knox,79,1162,832500,20314,19869.0
54036,-37.814515,145.016999,11 Muir Street,HAWTHORN,YARRA,19905,0.965,5.05,1,5753,11459,Boroondara,72,1627,2103800,19166,19905.0
50862,-37.789249,145.116936,16 Carawatha Road,DONCASTER,MORELAND,20042,3.36,11.86808510638298,1,7598,4243,Manningham,58,1242,1446200,17447,20042.0
42014,-37.7341423,145.0750275,29 Silk Street,ROSANNA,EAST GIPPSLAND,19983,1.043,18.08641975308642,1,3073,1156,Banyule,77,1551,1192000,21826,19983.0
20148,-37.79679108,144.9663696,334 Cardigan Street,CARLTON,STRATHBOGIE,19842,1.501,0.0,1,2909,16139,Melbourne,47,633,1480600,10673,19842.0
15745,-37.738191,144.88206,40 Newman Street,NIDDRIE,MANSFIELD,20036,3.567,9.333333333333334,1,2198,1140,Moonee Valley,69,1204,1148000,13979,20036.0
15900,-37.707767,144.880129,1/42 Sharps Road,TULLAMARINE,CENTRAL GOLDFIELDS,20032,3.286,13.76923076923077,1,3164,2016,Hume,65,1150,706000,16710,20032.0
17668,-37.70629,144.930903,74 Glenroy Road,GLENROY,WYNDHAM,20032,1.221,13.76923076923077,1,7882,4021,Moreland,66,1004,743900,27707,20032.0
73956,-37.846438,145.301215,7 Southern Aurora Place,BORONIA,TOWONG,19869,2.15,20.794392523364486,1,8285,4281,Knox,79,1162,832500,20314,19869.0
1481,-37.80552673,144.8969116,84 Albert Street,SEDDON,EAST GIPPSLAND,19997,0.402,,0,2035,844,Maribyrnong,49,1181,1148600,16926,19997.0
44234,-37.69747,145.108749,13 Delfin Crescent,GREENSBOROUGH,GLEN EIRA,19985,0.723,22.39189189189189,1,7426,2533,Banyule,83,1524,984000,26045,19985.0
21396,-37.769791,144.963177,6 Bezzell Street,BRUNSWICK,MARIBYRNONG,19968,0.391,7.125,1,8835,8041,Moreland,62,1433,1265800,20155,19968.0
23933,-37.710252,144.96195,1168  Sydney Road,FAWKNER,MONASH,19962,0.502,12.785714285714286,1,4754,1266,Moreland,53,865,745500,12899,19962.0
79189,-37.953017,145.142514,51 St James Avenue,SPRINGVALE,GREATER BENDIGO,19913,1.036,17.03585657370518,1,6280,4315,Greater Dandenong,36,884,895800,18147,19913.0
54386,-37.8177334,145.036957,3 Vicars Street,HAWTHORN,YARRA,19904,0.418,6.0,1,5753,11459,Boroondara,72,1627,2103800,19166,19904.0
82383,-37.994388,145.241166,7 Tristania Street,DOVETON,HINDMARSH,19888,2.802,22.110294117647058,1,3150,953,Casey,59,819,602200,9801,19888.0
73688,-37.840749,145.291309,41 Hilda Avenue,BORONIA,TOWONG,19870,2.04,19.363636363636363,1,8285,4281,Knox,79,1162,832500,20314,19870.0
14238,-37.748485,144.908541,3 Spencer Street,ESSENDON,NILLUMBIK,20037,1.075,7.5,1,6869,5592,Moonee Valley,81,1571,1550000,22442,20037.0
5289,-37.864376,144.824433,62 Upton Street,ALTONA,BRIMBANK,19926,0.552,,0,4843,2394,Hobsons Bay,70,1160,1139500,11742,19926.0
20430,-37.758533,144.951437,12 Thistle Street,BRUNSWICK,MARIBYRNONG,19967,0.868,8.11111111111111,1,8835,8041,Moreland,62,1433,1265800,20155,19967.0
50238,-37.762513,145.096095,42 Gisborne Street,BULLEEN,MARIBYRNONG,19935,3.175,15.848101265822784,1,4269,979,Manningham,58,1225,1322600,10590,19935.0
53659,-37.821705,145.001985,69 Mary Street,RICHMOND,EAST GIPPSLAND,19907,0.678,,0,8875,13869,Yarra,65,1731,1389100,24112,19907.0
62882,-37.82285309,145.2484131,36 Alvena Crescent,HEATHMONT,HORSHAM,19871,0.697,17.08910891089109,1,3459,1027,Maroondah,80,1297,1083000,16322,19871.0
96370,-38.012702,145.282461,1 Eleanore Crescent,HALLAM,GLEN EIRA,19885,1.246,26.25,1,3494,1290,Casey,56,1156,724000,9061,19885.0
14956,-37.735019,144.923394,11 Loeman Street,STRATHMORE,KNOX,20034,0.636,11.090909090909092,1,3101,749,Moonee Valley,81,1634,1643800,10591,20034.0
49771,-37.804147,145.081646,9 Kaleno View,BALWYN,HOBSONS BAY,19893,2.264,9.46875,1,4589,2796,Boroondara,71,1563,2551100,13849,19893.0
9693,-37.852358,144.737624,9 Dennerley Way,TRUGANINA,CENTRAL GOLDFIELDS,46468,2.131,,0,12111,961,Wyndham,74,1402,680500,39324,46468.0
36805,-37.643152,145.056483,13 Cavesson Court,EPPING,FRANKSTON,45795,1.145,26.786666666666665,1,13368,3047,Whittlesea,73,1283,673200,19624,45795.0
6576,-37.79049683,144.8377075,3 Mc Kay Street,SUNSHINE,KNOX,20021,0.478,11.08411214953271,1,4031,1779,Brimbank,52,929,883700,30677,20021.0
43866,-37.717243,145.091447,6 Gabonia Avenue,WATSONIA,MANNINGHAM,19984,0.971,19.841726618705035,1,2191,614,Banyule,82,1300,879500,8932,19984.0
62587,-37.830845,145.259609,16 Coven Avenue,HEATHMONT,HORSHAM,19871,1.353,17.08910891089109,1,3459,1027,Maroondah,80,1297,1083000,16322,19871.0
27382,-37.606548,144.933705,6 Grinstead Court,CRAIGIEBURN,YARRA RANGES,40221,0.998,21.0,1,19933,1906,Hume,74,1349,643500,25491,40221.0
16911,-37.697038,144.917226,25A Mitchell Street,GLENROY,WYNDHAM,20031,0.244,14.642857142857142,1,7882,4021,Moreland,66,1004,743900,27707,20031.0
70139,-37.872278,145.098577,5 Allambi Street,ASHWOOD,DAREBIN,19839,0.735,,0,2378,1176,Monash,73,1469,1436500,12420,19839.0
9738,-37.894899,144.636892,12 Coventry Drive,WERRIBEE,LODDON,19921,2.186,,0,14482,4489,Wyndham,77,1470,634600,36356,19921.0
48098,-37.793434,145.034264,21 Grandview Terrace,KEW,SOUTH GIPPSLAND,19931,1.695,13.333333333333334,1,8044,6097,Boroondara,73,2022,2332200,21677,19931.0
29094,-37.801717,144.996272,61 Studley Street,ABBOTSFORD,BANYULE,19975,0.327,8.23076923076923,1,2304,4706,Yarra,68,1797,1299400,4025,19975.0
94277,-37.958474,145.077714,11 Pebble Beach Place,HEATHERTON,SOUTH GIPPSLAND,19866,2.227,18.83823529411765,1,1014,463,Kingston,70,1752,1123700,1371,19866.0
14907,-37.763114,144.894145,98 Clifton Street,ABERFELDIE,MITCHELL,20037,2.096,7.5,1,1410,453,Moonee Valley,81,1571,1926600,22442,20037.0
42475,-37.730981,145.096087,62 Castleton Road,VIEWBANK,MANNINGHAM,19983,2.436,18.08641975308642,1,2434,356,Banyule,77,1551,1147300,21826,19983.0
59552,-37.809267,145.197724,2 Dalmor Avenue,MITCHAM,PORT PHILLIP,19900,1.097,15.882096069868995,1,5802,3089,Whitehorse,76,1424,1128700,14482,19900.0
42192,-37.735879,145.075849,4 Interlaken Parade,ROSANNA,EAST GIPPSLAND,19936,1.157,16.403973509933774,1,3073,1156,Banyule,77,1551,1192000,21826,19936.0
7209,-37.746562,144.775679,13 Appian Drive,ALBANVALE,HEPBURN,20002,2.154,13.42361111111111,1,1897,138,Brimbank,46,907,594200,54005,20002.0
8338,-37.749767,144.778846,256 Station Road,CAIRNLEA,YARRA RANGES,20002,1.945,13.42361111111111,1,2159,192,Brimbank,57,1423,969000,14107,20002.0
4271,-37.84466553,144.8654633,"217 Woods Street,",NEWPORT,MANSFIELD,19994,1.609,,0,5240,1816,Hobsons Bay,74,1626,1197100,14791,19994.0
63742,-37.806798,145.286176,18a Taylors Road,CROYDON,CARDINIA,19878,1.357,20.65573770491803,1,9705,5573,Maroondah,81,1267,902900,37491,19878.0
2107,-37.82192612,144.8390961,3 Almond Avenue,BROOKLYN,WANGARATTA,20022,3.282,7.9523809523809526,1,1077,551,Hobsons Bay,56,1162,701800,19978,20022.0
75043,-37.89239,145.063466,32 Margaret Street,CARNEGIE,MELBOURNE,19919,0.421,11.254658385093167,1,4596,5791,Glen Eira,64,1287,1406500,30031,19919.0
37637,-37.648767,145.056471,60 Calendula Circuit,EPPING,FRANKSTON,45795,0.932,26.786666666666665,1,13368,3047,Whittlesea,73,1283,673200,19624,45795.0
35897,-37.68669891,145.0388489,17 Murchison Way,THOMASTOWN,CAMPASPE,20007,2.277,22.0,1,7762,2091,Whittlesea,49,900,691800,21735,20007.0
38927,-37.757321,145.041023,5 Kwinana Court,IVANHOE,BASS COAST,19934,1.334,14.782608695652174,1,4147,2613,Banyule,77,1709,1560600,14278,19934.0
1336,-37.803818,144.892511,69 Victoria Street,SEDDON,EAST GIPPSLAND,20024,0.172,6.733333333333333,1,2035,844,Maribyrnong,49,1181,1148600,16926,20024.0
44762,-37.712262,145.104663,27 Amiet Street,GREENSBOROUGH,GLEN EIRA,19985,0.977,22.39189189189189,1,7426,2533,Banyule,83,1524,984000,26045,19985.0
58055,-37.826876,145.157693,37 Jeffery Street,BLACKBURN,GREATER GEELONG,19898,1.015,14.05703422053232,1,4821,2501,Whitehorse,75,1387,1485900,27564,19898.0
27726,-37.585955,144.902397,8 Arden Road,CRAIGIEBURN,YARRA RANGES,40221,4.018,21.0,1,19933,1906,Hume,74,1349,643500,25491,40221.0
73655,-37.854183,145.271435,4 Murene Court,BORONIA,TOWONG,19869,1.335,20.794392523364486,1,8285,4281,Knox,79,1162,832500,20314,19869.0
42142,-37.754176,145.070325,36 Rosanna Road,HEIDELBERG,MONASH,19935,0.908,15.848101265822784,1,2066,1742,Banyule,77,1551,1213100,21826,19935.0
90331,-37.97035599,145.0756531,23 Allnutt Parade,CHELTENHAM,YARRA RANGES,19865,1.577,20.61904761904762,1,8087,5856,Kingston,74,1233,1167300,18907,19865.0
42088,-37.737783,145.087631,32 Meyrick Crescent,VIEWBANK,MANNINGHAM,19936,1.975,16.403973509933774,1,2434,356,Banyule,77,1551,1147300,21826,19936.0
7558,-37.743064,144.774243,56 Dover Street,ALBANVALE,HEPBURN,20002,2.28,13.42361111111111,1,1897,138,Brimbank,46,907,594200,54005,20002.0
23150,-37.754744,144.972869,76 Moore Street,COBURG,MOONEE VALLEY,19966,0.973,10.0,1,10323,4557,Moreland,63,1268,1129500,29021,19966.0
35517,-37.69696,145.014719,72 Liston Avenue,RESERVOIR,EAST GIPPSLAND,20008,0.341,21.047619047619047,1,16913,8713,Darebin,63,972,861800,45591,20008.0
50598,-37.756134,145.131731,6 Hakea Street,TEMPLESTOWE,MOUNT ALEXANDER,19986,4.634,23.86,1,5734,1487,Manningham,64,1789,1759800,16180,19986.0
66128,-37.76707458,145.3252411,27 Chevalier Crescent,MOOROOLBARK,WEST WIMMERA,19877,2.269,22.9618320610687,1,7655,1413,Yarra Ranges,80,1360,874500,18998,19877.0
18209,-37.683128,144.921451,144 Cuthbert Street,BROADMEADOWS,WODONGA,20030,0.162,15.533333333333333,1,4395,1983,Hume,58,762,565700,18510,20030.0
60746,-37.838963,145.198212,40 Boronia Road,VERMONT,CENTRAL GOLDFIELDS,19900,2.396,15.882096069868995,1,3636,1030,Whitehorse,71,1459,1186300,20802,19900.0
74294,-37.88795853,145.0335999,224 Kambrook Road,CAULFIELD,MELTON,19942,0.782,12.32,1,1723,1630,Glen Eira,61,1547,1704100,15277,19942.0
59733,-37.811236,145.187396,26 Salvana Avenue,MITCHAM,PORT PHILLIP,19900,0.855,15.882096069868995,1,5802,3089,Whitehorse,76,1424,1128700,14482,19900.0
33323,-37.736731,145.004787,97 Pender Street,PRESTON,BOROONDARA,20012,0.433,16.176470588235293,1,11418,7672,Darebin,63,1155,1075700,27067,20012.0
29239,-37.768043,144.990021,108 Arthurton Road,NORTHCOTE,MURRINDINDI,20016,0.505,13.188811188811188,1,8461,5349,Darebin,69,1563,1630800,21000,20016.0
23621,-37.645429,144.902322,4 Arbroath Court,GREENVALE,HORSHAM,44817,2.717,17.375,1,6480,251,Hume,72,1730,942100,9120,44817.0
76175,-37.900912,145.081824,4/162 Kangaroo Road,HUGHESDALE,BASS COAST,19917,0.573,12.085858585858587,1,2268,2190,Monash,65,1340,1374600,16280,19917.0
19620,-37.673648,144.89862,2 Alison Place,ATTWOOD,MOYNE,20030,2.125,15.533333333333333,1,824,102,Hume,74,1388,995100,8623,20030.0
10298,-37.79101944,144.9326019,25 Barnett Street,KENSINGTON,SOUTH GIPPSLAND,20041,0.358,5.0,1,3940,4804,Melbourne,62,1401,1202200,14523,20041.0
77995,-37.929865,145.159275,38 Wattle Grove,MULGRAVE,MACEDON RANGES,19914,2.036,15.875,1,7213,1477,Monash,60,1348,1022600,22093,19914.0
38490,-37.767796,145.04636,1 Noel Street,IVANHOE,BASS COAST,19933,0.148,14.36241610738255,1,4147,2613,Banyule,77,1709,1560600,14278,19933.0
12539,-37.69843674,144.7575684,2 Answer Close,SYDENHAM,HEPBURN,20000,1.494,16.304347826086957,1,2811,1400,Brimbank,64,1491,658000,27356,20000.0
17347,-37.706517,144.904307,5 Centre Way,GLENROY,WYNDHAM,20032,1.158,13.76923076923077,1,7882,4021,Moreland,66,1004,743900,27707,20032.0
80909,-37.99138,145.202147,18 Rodwell Street,DANDENONG,CARDINIA,19888,0.683,22.110294117647058,1,8074,9600,Greater Dandenong,48,899,685100,45248,19888.0
57333,-37.826601,145.084759,5 Margaret Street,CANTERBURY,MELBOURNE,19893,0.39,9.46875,1,2781,1325,Boroondara,80,2352,2875800,7418,19893.0
57820,-37.814923,145.148636,20 Tyrrell Avenue,BLACKBURN,GREATER GEELONG,19898,0.586,14.05703422053232,1,4821,2501,Whitehorse,75,1387,1485900,27564,19898.0
64641,-37.794695,145.296127,53 Hull Road,CROYDON,CARDINIA,19878,1.369,20.65573770491803,1,9705,5573,Maroondah,81,1267,902900,37491,19878.0
28776,-37.8038299,144.9948927,112 Park Street,ABBOTSFORD,BANYULE,19976,0.127,8.267857142857142,1,2304,4706,Yarra,68,1797,1299400,4025,19976.0
55806,-37.846202,145.074008,583 Camberwell Road,CAMBERWELL,MELBOURNE,19850,0.282,11.181818181818182,1,7459,4358,Boroondara,77,2122,2235400,15537,19850.0
82544,-37.90299988,145.2744141,12 Jubilee Drive,ROWVILLE,BALLARAT,19868,2.996,21.208695652173912,1,9231,1496,Knox,71,1699,1069100,28725,19868.0
5997,-37.784692,144.838924,1/7 Brislington Street,SUNSHINE,KNOX,20021,0.683,11.08411214953271,1,4031,1779,Brimbank,52,929,883700,30677,20021.0
81162,-37.990652,145.202452,31 Bassett Street,DANDENONG,CARDINIA,19888,0.643,22.110294117647058,1,8074,9600,Greater Dandenong,48,899,685100,45248,19888.0
64620,-37.764917,145.288294,50 Humber Road,CROYDON NORTH,GOLDEN PLAINS,19877,3.062,22.9618320610687,1,2487,783,Maroondah,81,1267,1020800,37491,19877.0
44969,-37.71551514,145.0949707,37 Kanowindra Crescent,GREENSBOROUGH,GLEN EIRA,19984,1.107,19.841726618705035,1,7426,2533,Banyule,83,1524,984000,26045,19984.0
24916,-37.60795975,144.9132996,1 ST IVES PLACE,CRAIGIEBURN,YARRA RANGES,40221,2.734,21.0,1,19933,1906,Hume,74,1349,643500,25491,40221.0
25626,-37.587666,144.904822,17 Dalwhinnie Crescent,CRAIGIEBURN,YARRA RANGES,40221,3.743,21.0,1,19933,1906,Hume,74,1349,643500,25491,40221.0
78609,-37.936548,145.173826,13 Phillip Avenue,SPRINGVALE,GREATER BENDIGO,19913,2.298,17.03585657370518,1,6280,4315,Greater Dandenong,36,884,895800,18147,19913.0
42323,-37.7443175,145.0698667,5 Grenhilda Road,ROSANNA,EAST GIPPSLAND,19936,0.365,16.403973509933774,1,3073,1156,Banyule,77,1551,1192000,21826,19936.0
40054,-37.697346,145.065461,21 Sandhurst Crescent,BUNDOORA,WODONGA,19984,2.214,19.841726618705035,1,8943,3243,Whittlesea,69,1172,876900,24119,19984.0
36113,-37.67458725,145.026886,102 Cyprus Street,LALOR,KINGSTON,20007,1.282,22.0,1,8358,1216,Whittlesea,52,919,678600,20717,20007.0
79998,-37.988587,145.179178,26 Elmbank Drive,KEYSBOROUGH,KINGSTON,19889,1.585,19.59722222222222,1,9761,1578,Greater Dandenong,49,1253,1006400,16492,19889.0
8258,-37.76440048,144.7856598,20 Minvi Terrace,CAIRNLEA,YARRA RANGES,20003,2.24,12.984496124031008,1,2159,192,Brimbank,57,1423,969000,14107,20003.0
41100,-37.700878,145.071846,7/434 Grimshaw Street,BUNDOORA,WODONGA,19984,1.538,19.841726618705035,1,8943,3243,Whittlesea,69,1172,876900,24119,19984.0
79377,-37.938079,145.156119,8 Gray Street,SPRINGVALE,GREATER BENDIGO,19913,1.294,17.03585657370518,1,6280,4315,Greater Dandenong,36,884,895800,18147,19913.0
56046,-37.82240677,145.0666809,99 Broadway,CAMBERWELL,MELBOURNE,19892,0.41,8.56842105263158,1,7459,4358,Boroondara,77,2122,2235400,15537,19892.0
39195,-37.75056076,145.043045,305 Bell Street,BELLFIELD,MITCHELL,19935,1.713,15.848101265822784,1,738,119,Banyule,74,938,994800,13096,19935.0
28347,-37.794358,144.977556,57 Westgarth Street,FITZROY,NILLUMBIK,19975,1.579,8.23076923076923,1,3147,5530,Yarra,63,1483,1568000,9007,19975.0
34959,-37.724704,144.988249,43 Bourke Street,RESERVOIR,EAST GIPPSLAND,20011,1.343,17.166666666666668,1,16913,8713,Darebin,63,972,861800,45591,20011.0
45822,-37.71990204,145.1284638,132 Rattray Road,MONTMORENCY,PORT PHILLIP,19986,0.798,23.86,1,3368,1434,Banyule,87,1457,1111000,8154,19986.0
28105,-37.797574,144.980403,147 Argyle Street,FITZROY,NILLUMBIK,19975,1.248,8.23076923076923,1,3147,5530,Yarra,63,1483,1568000,9007,19975.0
32995,-37.747859,144.992688,5E Austral Avenue,PRESTON,BOROONDARA,20013,0.705,15.1875,1,11418,7672,Darebin,63,1155,1075700,27067,20013.0
32144,-37.75398254,145.0180512,193 Dundas Street,PRESTON,BOROONDARA,20014,1.719,14.2,1,11418,7672,Darebin,63,1155,1075700,27067,20014.0
62002,-37.8242,145.223788,45 Heywood Street,RINGWOOD,MACEDON RANGES,19902,1.031,16.388235294117646,1,6350,4648,Maroondah,79,1393,1024000,28808,19902.0
95319,-37.907493,145.028293,26 Clee Street,MCKINNON,HORSHAM,19940,0.933,13.683333333333334,1,1953,1107,Glen Eira,72,1538,1683800,17630,19940.0
38530,-37.76185226,145.0337524,102 Bond Street,IVANHOE,BASS COAST,19933,1.292,14.36241610738255,1,4147,2613,Banyule,77,1709,1560600,14278,19933.0
29981,-37.771476,145.012491,35 Boothby Street,NORTHCOTE,MURRINDINDI,19929,0.936,12.136363636363637,1,8461,5349,Darebin,69,1563,1630800,21000,19929.0
74871,-37.897701,145.047945,24 Neville Street,CARNEGIE,MELBOURNE,19941,0.955,13.927272727272728,1,4596,5791,Glen Eira,64,1287,1406500,30031,19941.0
92471,-37.975373,145.063615,9 Winsome Street,MENTONE,WEST WIMMERA,19865,0.735,20.61904761904762,1,4507,3922,Kingston,76,1288,1332300,14158,19865.0
41408,-37.746377,145.062053,10 Hillside Road,ROSANNA,EAST GIPPSLAND,19936,0.53,16.403973509933774,1,3073,1156,Banyule,77,1551,1192000,21826,19936.0
31997,-37.744186,145.016756,16 Opal Street,PRESTON,BOROONDARA,20013,1.469,15.1875,1,11418,7672,Darebin,63,1155,1075700,27067,20013.0
15412,-37.740995,144.916757,6 Bruce Street,STRATHMORE,KNOX,20036,0.784,9.333333333333334,1,3101,749,Moonee Valley,81,1634,1643800,10591,20036.0
35163,-37.710268,145.018707,53 Crookston Road,RESERVOIR,EAST GIPPSLAND,20009,0.851,19.1,1,16913,8713,Darebin,63,972,861800,45591,20009.0
73666,-37.843197,145.2907,4 Tarakan Street,BORONIA,TOWONG,19870,1.99,19.363636363636363,1,8285,4281,Knox,79,1162,832500,20314,19870.0
43012,-37.717143,145.072701,24 Nicholls Street,MACLEOD,WANGARATTA,19983,1.036,18.08641975308642,1,3511,1718,Banyule,79,1458,1123400,12063,19983.0
59611,-37.809791,145.186783,20 Dunfield Avenue,MITCHAM,PORT PHILLIP,19900,1.022,15.882096069868995,1,5802,3089,Whitehorse,76,1424,1128700,14482,19900.0
57314,-37.828049,145.075466,45 Matlock Street,CANTERBURY,MELBOURNE,19852,0.64,9.444444444444445,1,2781,1325,Boroondara,80,2352,2875800,7418,19852.0
57732,-37.82474518,145.1710358,186-188 Central Road,NUNAWADING,STONNINGTON,19899,0.572,14.655339805825243,1,4033,2270,Whitehorse,70,1202,1171100,20796,19899.0
94199,-38.076792,145.128076,39 Walkers Road,CARRUM,QUEENSCLIFFE,19858,0.539,28.16,1,1725,1350,Kingston,76,1305,1047100,12098,19858.0
55049,-37.836066,145.086865,14 Wingan Avenue,CAMBERWELL,MELBOURNE,19894,1.319,10.38679245283019,1,7459,4358,Boroondara,77,2122,2235400,15537,19894.0
64418,-37.804006,145.297413,4 Edward Court,CROYDON,CARDINIA,19878,1.76,20.65573770491803,1,9705,5573,Maroondah,81,1267,902900,37491,19878.0
90362,-37.96203,145.045617,24 Wembley Avenue,CHELTENHAM,YARRA RANGES,19866,0.938,18.83823529411765,1,8087,5856,Kingston,74,1233,1167300,18907,19866.0
50025,-37.763408,145.090374,2/86 Latrobe Street,BULLEEN,MARIBYRNONG,19935,2.706,15.848101265822784,1,4269,979,Manningham,58,1225,1322600,10590,19935.0
91708,-37.977121,145.049782,5 Wallace Crescent,BEAUMARIS,TOWONG,19866,1.239,18.83823529411765,1,5041,1732,Bayside,79,1845,1882800,17536,19866.0
71003,-37.85910416,145.2307129,10 Georgian Gardens,WANTIRNA,CENTRAL GOLDFIELDS,19871,3.636,17.08910891089109,1,4861,1165,Knox,70,1463,1071300,31889,19871.0
40123,-37.696758,145.050916,23/88-90 Settlement Road,BUNDOORA,WODONGA,19984,3.299,19.841726618705035,1,8943,3243,Whittlesea,69,1172,876900,24119,19984.0
39133,-37.752709,145.037837,14 Harrison Street,BELLFIELD,MITCHELL,19934,1.864,14.782608695652174,1,738,119,Banyule,74,938,994800,13096,19934.0
76750,-37.918003,145.122018,3 Murray Street,CLAYTON,HINDMARSH,19915,0.755,14.25108225108225,1,5171,5343,Monash,48,962,1017200,18901,19915.0
22276,-37.740514,144.95599,209 Bell Street,COBURG,MOONEE VALLEY,19965,0.678,10.909090909090908,1,10323,4557,Moreland,63,1268,1129500,29021,19965.0
39266,-37.715836,145.033351,1 Club Avenue,KINGSBURY,ALPINE,20009,2.277,19.1,1,1234,479,Darebin,69,1172,813800,24119,20009.0
66238,-37.763979,145.320261,32 Drummer Hill Lane,MOOROOLBARK,WEST WIMMERA,19877,2.413,22.9618320610687,1,7655,1413,Yarra Ranges,80,1360,874500,18998,19877.0
68656,-37.86196,145.023009,78 Wattletree Road,ARMADALE,BRIMBANK,19945,0.693,7.012987012987013,1,2838,3841,Stonnington,73,1713,1925900,8428,19945.0
79242,-37.949719,145.156564,6 Cranley Street,SPRINGVALE,GREATER BENDIGO,19913,0.274,17.03585657370518,1,6280,4315,Greater Dandenong,36,884,895800,18147,19913.0
45446,-37.701413,145.123881,7 Sunderland Rise,GREENSBOROUGH,GLEN EIRA,19985,1.406,22.39189189189189,1,7426,2533,Banyule,83,1524,984000,26045,19985.0
31412,-37.758169,145.004835,67 Gooch Street,THORNBURY,LATROBE,20014,0.651,14.2,1,6018,4275,Darebin,63,1275,1361700,16671,20014.0
78841,-37.95594406,145.1394043,22 McKirdy Street,SPRINGVALE,GREATER BENDIGO,19913,1.426,17.03585657370518,1,6280,4315,Greater Dandenong,36,884,895800,18147,19913.0
72979,-37.870681,145.283965,15 Aubrey Grove,BORONIA,TOWONG,19869,1.139,20.794392523364486,1,8285,4281,Knox,79,1162,832500,20314,19869.0
21500,-37.770957,144.970608,7 Pitt Street,BRUNSWICK,MARIBYRNONG,19968,1.035,7.125,1,8835,8041,Moreland,62,1433,1265800,20155,19968.0
60479,-37.84493256,145.1883698,147 Jolimont Road,VERMONT,CENTRAL GOLDFIELDS,19899,2.956,14.655339805825243,1,3636,1030,Whitehorse,71,1459,1186300,20802,19899.0
91321,-37.979366,145.039396,166 Dalgetty Road,BEAUMARIS,TOWONG,19866,1.943,18.83823529411765,1,5041,1732,Bayside,79,1845,1882800,17536,19866.0
24652,-37.677494,144.96392,13 Poplar Street,CAMPBELLFIELD,STRATHBOGIE,19960,1.976,16.6875,1,2830,1163,Hume,48,786,588600,5480,19960.0
44001,-37.704293,145.097335,1/159 Grimshaw Street,GREENSBOROUGH,GLEN EIRA,19985,0.962,22.39189189189189,1,7426,2533,Banyule,83,1524,984000,26045,19985.0
8139,-37.758423,144.755916,150 Westwood Drive,BURNSIDE,MOYNE,20002,4.168,13.42361111111111,1,1290,343,Melton,57,1423,788300,14107,20002.0
74056,-37.856502,145.269812,9 Browning Road,BORONIA,TOWONG,19869,1.354,20.794392523364486,1,8285,4281,Knox,79,1162,832500,20314,19869.0
47440,-37.695895,145.170558,68 Kalbar Road,ELTHAM,FRANKSTON,19988,2.73,29.044444444444444,1,6040,1782,Nillumbik,85,1923,1178700,28827,19988.0
13895,-37.756822,144.91245,159 Buckley Street,ESSENDON,NILLUMBIK,20037,0.342,7.5,1,6869,5592,Moonee Valley,81,1571,1550000,22442,20037.0
15300,-37.740344,144.923929,4 Wickham Grove,STRATHMORE,KNOX,20035,0.469,10.2,1,3101,749,Moonee Valley,81,1634,1643800,10591,20035.0
31741,-37.743973,144.999969,11/2 Arthur Street,PRESTON,BOROONDARA,20013,0.178,15.1875,1,11418,7672,Darebin,63,1155,1075700,27067,20013.0
21900,-37.744887,144.972833,124 Barrow Street,COBURG,MOONEE VALLEY,19965,0.883,10.909090909090908,1,10323,4557,Moreland,63,1268,1129500,29021,19965.0
10881,-37.794081,144.926562,7a The Ridgeway,KENSINGTON,SOUTH GIPPSLAND,20041,0.35,5.0,1,3940,4804,Melbourne,62,1401,1202200,14523,20041.0
93967,-38.063346,145.125713,5 Genoa Avenue,BONBEACH,QUEENSCLIFFE,19859,0.531,27.333333333333332,1,2249,1613,Kingston,76,1179,1114700,19121,19859.0
90491,-37.956685,145.061319,3 Newry Street,CHELTENHAM,YARRA RANGES,19866,1.258,18.83823529411765,1,8087,5856,Kingston,74,1233,1167300,18907,19866.0
69639,-37.861275,145.096023,18 Carlyle Street,ASHWOOD,DAREBIN,19848,1.292,13.0,1,2378,1176,Monash,73,1469,1436500,12420,19848.0
34469,-37.724822,144.989526,27 Bourke Street,RESERVOIR,EAST GIPPSLAND,20011,1.233,17.166666666666668,1,16913,8713,Darebin,63,972,861800,45591,20011.0
21472,-37.75621,144.952279,67 Rose Street,BRUNSWICK,MARIBYRNONG,19966,0.862,10.0,1,8835,8041,Moreland,62,1433,1265800,20155,19966.0
55252,-37.842295,145.08626,2/59 Lynden Street,CAMBERWELL,MELBOURNE,19850,0.959,11.181818181818182,1,7459,4358,Boroondara,77,2122,2235400,15537,19850.0
39234,-37.75439,145.035386,52 Perkins Avenue,BELLFIELD,MITCHELL,19933,1.841,14.36241610738255,1,738,119,Banyule,74,938,994800,13096,19933.0
6640,-37.7848917,144.8229279,34 Forrest Street,ALBION,MOIRA,20004,0.821,11.692982456140351,1,1389,1392,Brimbank,52,929,739100,30677,20004.0
66637,-37.774463,145.323407,7 Devon Walk,MOOROOLBARK,WEST WIMMERA,19877,1.499,22.9618320610687,1,7655,1413,Yarra Ranges,80,1360,874500,18998,19877.0
39862,-37.68332291,145.0541687,18 Ironbark Dr,BUNDOORA,WODONGA,20007,3.53,22.0,1,8943,3243,Whittlesea,69,1172,876900,24119,20007.0
29899,-37.773635,145.004061,30 Andrew Street,NORTHCOTE,MURRINDINDI,19929,0.719,12.136363636363637,1,8461,5349,Darebin,69,1563,1630800,21000,19929.0
16816,-37.695829,144.935332,22 Bindi Street,GLENROY,WYNDHAM,20031,1.718,14.642857142857142,1,7882,4021,Moreland,66,1004,743900,27707,20031.0
26533,-37.5823993,144.9072152,32 Grevillea Street,CRAIGIEBURN,YARRA RANGES,40221,3.849,21.0,1,19933,1906,Hume,74,1349,643500,25491,40221.0
89888,-37.956289,145.062778,11 Rosewarne Avenue,CHELTENHAM,YARRA RANGES,19866,1.36,18.83823529411765,1,8087,5856,Kingston,74,1233,1167300,18907,19866.0
39458,-37.682753,145.064621,11 Ebony Drive,BUNDOORA,WODONGA,19984,3.565,19.841726618705035,1,8943,3243,Whittlesea,69,1172,876900,24119,19984.0
40264,-37.705752,145.072182,29 Lea Crescent,BUNDOORA,WODONGA,19984,1.175,19.841726618705035,1,8943,3243,Whittlesea,69,1172,876900,24119,19984.0
75562,-37.898927,145.101499,1/1520 Dandenong Road,OAKLEIGH,WANGARATTA,19917,1.17,12.085858585858587,1,3155,1636,Monash,65,1340,1301400,16280,19917.0
38977,-37.76003265,145.0381012,61 Hawker Street,IVANHOE,BASS COAST,19933,1.179,14.36241610738255,1,4147,2613,Banyule,77,1709,1560600,14278,19933.0
74077,-37.85934,145.304169,9 Sapphire Avenue,BORONIA,TOWONG,19869,1.743,20.794392523364486,1,8285,4281,Knox,79,1162,832500,20314,19869.0
57061,-37.830988,145.079136,156 Prospect Hill Road,CANTERBURY,MELBOURNE,19893,0.747,9.46875,1,2781,1325,Boroondara,80,2352,2875800,7418,19893.0
84632,-37.879378,144.98597,129A Mitford Street,ELWOOD,MORELAND,19955,0.901,,0,3628,8403,Port Phillip,72,1715,1874000,12829,19955.0
96991,-38.016271,145.277807,63 Hinrichsen Drive,HALLAM,GLEN EIRA,19885,0.723,26.25,1,3494,1290,Casey,56,1156,724000,9061,19885.0
14455,-37.74409,144.925268,42 Alfred Road,ESSENDON,NILLUMBIK,20035,0.189,10.2,1,6869,5592,Moonee Valley,81,1571,1550000,22442,20035.0
70334,-37.86090088,145.1057587,8 Mountain Ash Avenue,ASHWOOD,DAREBIN,19840,1.52,,0,2378,1176,Monash,73,1469,1436500,12420,19840.0
41650,-37.736785,145.067794,15 Von Nida Crescent,ROSANNA,EAST GIPPSLAND,19936,0.694,16.403973509933774,1,3073,1156,Banyule,77,1551,1192000,21826,19936.0
37365,-37.64352,145.058458,387 Findon Road,EPPING,FRANKSTON,45795,0.982,26.786666666666665,1,13368,3047,Whittlesea,73,1283,673200,19624,45795.0
9343,-37.86135,144.729396,18 Federation Boulevard,TRUGANINA,CENTRAL GOLDFIELDS,46468,1.848,,0,12111,961,Wyndham,74,1402,680500,39324,46468.0
43899,-37.717492,145.088125,7 BARRY STREET,WATSONIA,MANNINGHAM,19984,0.821,19.841726618705035,1,2191,614,Banyule,82,1300,879500,8932,19984.0
50198,-37.768275,145.088849,36 Summit Drive,BULLEEN,MARIBYRNONG,19935,2.774,15.848101265822784,1,4269,979,Manningham,58,1225,1322600,10590,19935.0
44412,-37.71595764,145.10672,17 Victoria Street,GREENSBOROUGH,GLEN EIRA,19986,1.305,23.86,1,7426,2533,Banyule,83,1524,984000,26045,19986.0
80420,-37.990717,145.185436,6 Wooltana Road,KEYSBOROUGH,KINGSTON,19889,1.489,19.59722222222222,1,9761,1578,Greater Dandenong,49,1253,1006400,16492,19889.0
16449,-37.694751,144.926446,126 Bindi Street,GLENROY,WYNDHAM,20031,0.934,14.642857142857142,1,7882,4021,Moreland,66,1004,743900,27707,20031.0
91310,-37.971936,145.041239,16 Kirkwood Street,BEAUMARIS,TOWONG,19866,1.309,18.83823529411765,1,5041,1732,Bayside,79,1845,1882800,17536,19866.0
65390,-37.797387,145.313591,46 Hawthory Road,KILSYTH,SURF COAST,19877,1.411,22.9618320610687,1,4209,1613,Yarra Ranges,82,1211,813100,12665,19877.0
77039,-37.943988,145.111226,1 Mack Crescent,CLARINDA,BULOKE,19915,2.299,14.25108225108225,1,2271,640,Kingston,44,1116,1012900,19027,19915.0
63644,-37.784925,145.292911,163 Dorset Road,CROYDON,CARDINIA,19878,1.595,20.65573770491803,1,9705,5573,Maroondah,81,1267,902900,37491,19878.0
92086,-37.98821,145.062402,2 Coryule Avenue,MENTONE,WEST WIMMERA,19865,0.747,20.61904761904762,1,4507,3922,Kingston,76,1288,1332300,14158,19865.0
78149,-37.934703,145.186669,5 Locarno Court,MULGRAVE,MACEDON RANGES,19891,3.205,17.657587548638134,1,7213,1477,Monash,60,1348,1022600,22093,19891.0
37323,-37.636488,145.042737,34 Ilani Street,EPPING,FRANKSTON,20005,2.09,24.90277777777778,1,13368,3047,Whittlesea,73,1283,673200,19624,20005.0
88048,-37.93841171,145.0565643,10 Faye Street,MOORABBIN,MANSFIELD,19872,1.705,17.015625,1,2571,1673,Kingston,69,1294,1283800,13081,19872.0
93598,-37.989843,145.088972,67 Mc Swain Street,PARKDALE,STONNINGTON,19864,1.166,21.428571428571427,1,4160,2433,Kingston,76,1492,1341800,24045,19864.0
15641,-37.740784,144.891291,26 Moushall Avenue,NIDDRIE,MANSFIELD,20036,2.706,9.333333333333334,1,2198,1140,Moonee Valley,69,1204,1148000,13979,20036.0
12930,-37.7255269,144.7705696,3/21 Patonga Drive,DELAHEY,BULOKE,20001,2.082,14.857142857142858,1,2193,541,Brimbank,64,1491,648400,27356,20001.0
26786,-37.58308411,144.9356079,4 Goulburn Way,CRAIGIEBURN,YARRA RANGES,40221,2.193,21.0,1,19933,1906,Hume,74,1349,643500,25491,40221.0
73729,-37.866029,145.257438,45 Kleinert Road,BORONIA,TOWONG,19869,2.448,20.794392523364486,1,8285,4281,Knox,79,1162,832500,20314,19869.0
9938,-37.792436,144.919888,105 Stockmans Way,KENSINGTON,SOUTH GIPPSLAND,20026,0.93,,0,3940,4804,Melbourne,62,1401,1202200,14523,20026.0
21339,-37.757826,144.95779,51 Canberra Street,BRUNSWICK,MARIBYRNONG,19967,0.458,8.11111111111111,1,8835,8041,Moreland,62,1433,1265800,20155,19967.0
95522,-37.93071747,145.0469055,31 Marquis Road,BENTLEIGH,HOBSONS BAY,19937,0.98,16.14074074074074,1,5799,3228,Glen Eira,72,1538,1649200,17630,19937.0
21621,-37.76817,144.968162,9 Elizabeth Street,BRUNSWICK,MARIBYRNONG,19968,0.756,7.125,1,8835,8041,Moreland,62,1433,1265800,20155,19968.0
53070,-37.82683182,144.9944,33 White Street,CREMORNE,WELLINGTON,19907,0.239,,0,901,1028,Yarra,65,1731,1529500,24112,19907.0
6464,-37.780569,144.817554,22 Mclean Street,ALBION,MOIRA,20004,0.708,11.692982456140351,1,1389,1392,Brimbank,52,929,739100,30677,20004.0
52381,-37.81587219,144.9934082,15 Bowen Street,RICHMOND,EAST GIPPSLAND,19978,0.203,7.690476190476191,1,8875,13869,Yarra,65,1731,1389100,24112,19978.0
14180,-37.755002,144.904295,27 Tweedside Street,ESSENDON,NILLUMBIK,20037,1.054,7.5,1,6869,5592,Moonee Valley,81,1571,1550000,22442,20037.0
41166,-37.700159,145.076694,8 Gordon Street,BUNDOORA,WODONGA,19984,1.355,19.841726618705035,1,8943,3243,Whittlesea,69,1172,876900,24119,19984.0
20741,-37.767736,144.970419,2/ 147 Victoria Street,BRUNSWICK,MARIBYRNONG,19968,0.953,7.125,1,8835,8041,Moreland,62,1433,1265800,20155,19968.0
55639,-37.846066,145.064391,4 Range Street,CAMBERWELL,MELBOURNE,19850,1.009,11.181818181818182,1,7459,4358,Boroondara,77,2122,2235400,15537,19850.0
35533,-37.72855759,145.0179138,737 Plenty Road,RESERVOIR,EAST GIPPSLAND,20011,1.333,17.166666666666668,1,16913,8713,Darebin,63,972,861800,45591,20011.0
92456,-37.979576,145.062678,85 Collins Street,MENTONE,WEST WIMMERA,19865,0.336,20.61904761904762,1,4507,3922,Kingston,76,1288,1332300,14158,19865.0
95158,-37.913916,145.035017,21 Fitzroy Street,MCKINNON,HORSHAM,19939,0.427,14.476923076923077,1,1953,1107,Glen Eira,72,1538,1683800,17630,19939.0
89944,-37.953773,145.058048,122 Chesterville Road,CHELTENHAM,YARRA RANGES,19866,1.466,18.83823529411765,1,8087,5856,Kingston,74,1233,1167300,18907,19866.0
19267,-37.673264,144.928924,9 Nhill Court,DALLAS,MOORABOOL,20030,1.364,15.533333333333333,1,2207,315,Hume,58,762,514300,18510,20030.0
47996,-37.803257,145.060816,17 Second Avenue,KEW,SOUTH GIPPSLAND,19903,2.505,6.752380952380952,1,8044,6097,Boroondara,73,2022,2332200,21677,19903.0
94970,-37.919492,145.029526,18 Eddys Grove,BENTLEIGH,HOBSONS BAY,19939,0.695,14.476923076923077,1,5799,3228,Glen Eira,72,1538,1649200,17630,19939.0
83826,-37.851268,145.008898,29 Woodfull Street,PRAHRAN,BOROONDARA,19946,0.444,7.181818181818182,1,4230,8324,Stonnington,66,1560,1706800,17776,19946.0
75071,-37.892355,145.064826,34A Emily Street,CARNEGIE,MELBOURNE,19919,0.328,11.254658385093167,1,4596,5791,Glen Eira,64,1287,1406500,30031,19919.0
48986,-37.808032,145.096584,125b Winmalee Road,BALWYN,HOBSONS BAY,19896,1.493,11.341269841269842,1,4589,2796,Boroondara,71,1563,2551100,13849,19896.0
40313,-37.68774033,145.0683594,3 Newman Close,BUNDOORA,WODONGA,19984,2.92,19.841726618705035,1,8943,3243,Whittlesea,69,1172,876900,24119,19984.0
26064,-37.594938,144.906171,23 Waterbird Link,CRAIGIEBURN,YARRA RANGES,40221,3.365,21.0,1,19933,1906,Hume,74,1349,643500,25491,40221.0
5269,-37.869667,144.835975,6 Bayview Street,ALTONA,BRIMBANK,19927,0.483,,0,4843,2394,Hobsons Bay,70,1160,1139500,11742,19927.0
26475,-37.5762716,144.9105358,30 Powell Street,CRAIGIEBURN,YARRA RANGES,40221,4.056,21.0,1,19933,1906,Hume,74,1349,643500,25491,40221.0
63394,-37.786605,145.281387,11 Grandview Avenue,CROYDON,CARDINIA,19878,0.986,20.65573770491803,1,9705,5573,Maroondah,81,1267,902900,37491,19878.0
37118,-37.645954,145.053444,24 Halter Crescent,EPPING,FRANKSTON,45795,1.25,26.786666666666665,1,13368,3047,Whittlesea,73,1283,673200,19624,45795.0
12122,-37.70172,144.744319,10 Richie Circuit,HILLSIDE,GREATER DANDENONG,20000,2.631,16.304347826086957,1,4717,798,Melton,64,1491,867300,27356,20000.0
37943,-37.783126,145.034668,11 St Bernards Road,ALPHINGTON,BANYULE,19931,0.606,13.333333333333334,1,1729,1099,Darebin,73,1538,1729600,9227,19931.0
44843,-37.688543,145.126075,3 Larool Avenue,ST HELENA,SOUTHERN GRAMPIANS,19985,2.326,22.39189189189189,1,800,170,Banyule,83,1524,1163300,26045,19985.0
5746,-37.78821945,144.8497315,36 Myalla Street,BRAYBROOK,HUME,20021,1.483,11.08411214953271,1,2822,1654,Maribyrnong,52,792,755400,6573,20021.0
1058,-37.797934,144.904041,45 Moore Street,FOOTSCRAY,WHITTLESEA,20025,0.358,5.75,1,5286,6864,Maribyrnong,49,1181,869400,16926,20025.0
59445,-37.822077,145.187723,15 Parkway Lane,MITCHAM,PORT PHILLIP,19900,0.587,15.882096069868995,1,5802,3089,Whitehorse,76,1424,1128700,14482,19900.0
23067,-37.734012,144.964105,67 Ross Street,COBURG,MOONEE VALLEY,19964,0.124,11.833333333333334,1,10323,4557,Moreland,63,1268,1129500,29021,19964.0
23613,-37.612246,144.909773,37 Serendip Crescent (Greenvale Lakes),GREENVALE,HORSHAM,40221,3.178,21.0,1,6480,251,Hume,72,1730,942100,9120,40221.0
92473,-37.980791,145.071257,91 Warrigal Road,MENTONE,WEST WIMMERA,19865,0.548,20.61904761904762,1,4507,3922,Kingston,76,1288,1332300,14158,19865.0
4671,-37.834214,144.867257,79 Gordon Street,NEWPORT,MANSFIELD,19995,1.69,,0,5240,1816,Hobsons Bay,74,1626,1197100,14791,19995.0
8562,-37.767098,144.781719,5 Warin Road,CAIRNLEA,YARRA RANGES,20003,2.674,12.984496124031008,1,2159,192,Brimbank,57,1423,969000,14107,20003.0
78481,-37.936122,145.158864,1 Reilly Street,SPRINGVALE,GREATER BENDIGO,19913,1.564,17.03585657370518,1,6280,4315,Greater Dandenong,36,884,895800,18147,19913.0
82589,-37.90868,145.251495,15 Valleyview Drive,ROWVILLE,BALLARAT,19868,4.878,21.208695652173912,1,9231,1496,Knox,71,1699,1069100,28725,19868.0
63897,-37.790429,145.303841,20 Lionel Crescent,CROYDON,CARDINIA,19877,0.983,22.9618320610687,1,9705,5573,Maroondah,81,1267,902900,37491,19877.0
45353,-37.69673538,145.1004944,6 Wyuna Close,GREENSBOROUGH,GLEN EIRA,19985,1.055,22.39189189189189,1,7426,2533,Banyule,83,1524,984000,26045,19985.0
77198,-37.93783188,145.1043854,3 Shannon Court,CLARINDA,BULOKE,19915,2.038,14.25108225108225,1,2271,640,Kingston,44,1116,1012900,19027,19915.0
72668,-37.854241,145.273682,1 Duncan Avenue,BORONIA,TOWONG,19869,1.167,20.794392523364486,1,8285,4281,Knox,79,1162,832500,20314,19869.0
83219,-37.892238,145.247987,5 Coringa Court,KNOXFIELD,SOUTHERN GRAMPIANS,19868,4.315,21.208695652173912,1,2723,1042,Knox,76,1310,909600,6617,19868.0
95718,-37.914466,145.035073,4 Fitzroy Street,BENTLEIGH,HOBSONS BAY,19939,0.37,14.476923076923077,1,5799,3228,Glen Eira,72,1538,1649200,17630,19939.0
40672,-37.698808,145.051463,46 Arthur Street,BUNDOORA,WODONGA,19984,3.152,19.841726618705035,1,8943,3243,Whittlesea,69,1172,876900,24119,19984.0
91751,-37.97320557,145.0500031,6 Parkside Street,BEAUMARIS,TOWONG,19866,0.832,18.83823529411765,1,5041,1732,Bayside,79,1845,1882800,17536,19866.0
21738,-37.737342,144.954705,10 Collins Street,COBURG,MOONEE VALLEY,19964,0.833,11.833333333333334,1,10323,4557,Moreland,63,1268,1129500,29021,19964.0
36026,-37.677699,145.034619,5 Warwick Court,THOMASTOWN,CAMPASPE,20007,1.816,22.0,1,7762,2091,Whittlesea,49,900,691800,21735,20007.0
80584,-37.987868,145.186356,9 Springside Crs,KEYSBOROUGH,KINGSTON,19889,1.165,19.59722222222222,1,9761,1578,Greater Dandenong,49,1253,1006400,16492,19889.0
39054,-37.757597,145.037963,86 Oriel Road,IVANHOE,BASS COAST,19933,1.419,14.36241610738255,1,4147,2613,Banyule,77,1709,1560600,14278,19933.0
91957,-37.97761154,145.0696716,11 Johnston Street,MENTONE,WEST WIMMERA,19865,0.617,20.61904761904762,1,4507,3922,Kingston,76,1288,1332300,14158,19865.0
15287,-37.736383,144.907204,39a Dublin Avenue,STRATHMORE,KNOX,20036,1.707,9.333333333333334,1,3101,749,Moonee Valley,81,1634,1643800,10591,20036.0
71715,-37.862898,145.220645,6 Winyarra Court,WANTIRNA,CENTRAL GOLDFIELDS,19871,4.385,17.08910891089109,1,4861,1165,Knox,70,1463,1071300,31889,19871.0
71029,-37.8555636,145.2173541,103 Barmah Drive West,WANTIRNA,CENTRAL GOLDFIELDS,19871,3.862,17.08910891089109,1,4861,1165,Knox,70,1463,1071300,31889,19871.0
74862,-37.8884,145.06398,23B Oakdene Crescent,CARNEGIE,MELBOURNE,19919,0.359,11.254658385093167,1,4596,5791,Glen Eira,64,1287,1406500,30031,19919.0
12461,-37.690876,144.760242,18 Beaumont Court,SYDENHAM,HEPBURN,20000,1.676,16.304347826086957,1,2811,1400,Brimbank,64,1491,658000,27356,20000.0
4514,-37.848367,144.869129,5 Revo Street,NEWPORT,MANSFIELD,19994,1.419,,0,5240,1816,Hobsons Bay,74,1626,1197100,14791,19994.0
49387,-37.8061,145.090718,30 Raynes Street,BALWYN,HOBSONS BAY,19896,1.974,11.341269841269842,1,4589,2796,Boroondara,71,1563,2551100,13849,19896.0
24302,-37.703585,144.962076,3/17 Shirley Street,FAWKNER,MONASH,19961,0.429,13.8,1,4754,1266,Moreland,53,865,745500,12899,19961.0
77919,-37.93359756,145.1759186,30 Withers Avenue,MULGRAVE,MACEDON RANGES,19913,2.651,17.03585657370518,1,7213,1477,Monash,60,1348,1022600,22093,19913.0
59762,-37.825563,145.21025,29 Blossom Street,MITCHAM,PORT PHILLIP,19901,0.775,15.935622317596566,1,5802,3089,Whitehorse,76,1424,1128700,14482,19901.0
58222,-37.815189,145.164385,59 Jubilee Street,BLACKBURN,GREATER GEELONG,19899,1.103,14.655339805825243,1,4821,2501,Whitehorse,75,1387,1485900,27564,19899.0
12955,-37.699776,144.743817,30 Vine Court,HILLSIDE,GREATER DANDENONG,20000,2.679,16.304347826086957,1,4717,798,Melton,64,1491,867300,27356,20000.0
96378,-38.000835,145.26938,1 MOUNTVIEW AVE,HALLAM,GLEN EIRA,19885,1.882,26.25,1,3494,1290,Casey,56,1156,724000,9061,19885.0
33046,-37.731961,144.999988,61 Spring Street,PRESTON,BOROONDARA,20011,0.466,17.166666666666668,1,11418,7672,Darebin,63,1155,1075700,27067,20011.0
80320,-37.995293,145.162002,5 Dennis Court,KEYSBOROUGH,KINGSTON,19889,3.216,19.59722222222222,1,9761,1578,Greater Dandenong,49,1253,1006400,16492,19889.0
76777,-37.917606,145.125837,33 Hourigan Avenue,CLAYTON,HINDMARSH,19915,0.915,14.25108225108225,1,5171,5343,Monash,48,962,1017200,18901,19915.0
50515,-37.75626373,145.1379547,20 Stradmore Avenue,TEMPLESTOWE,MOUNT ALEXANDER,19986,4.785,23.86,1,5734,1487,Manningham,64,1789,1759800,16180,19986.0
27519,-37.587251,144.926237,68 Willmott Drive,CRAIGIEBURN,YARRA RANGES,40221,2.213,21.0,1,19933,1906,Hume,74,1349,643500,25491,40221.0
83531,-37.852158,145.001929,14a Trinian Street,PRAHRAN,BOROONDARA,19947,0.843,6.618181818181818,1,4230,8324,Stonnington,66,1560,1706800,17776,19947.0
78299,-37.92542267,145.1676178,68 Wanda Street,MULGRAVE,MACEDON RANGES,19914,2.916,15.875,1,7213,1477,Monash,60,1348,1022600,22093,19914.0
22329,-37.7350584,144.9564436,23 A'beckett Street,COBURG,MOONEE VALLEY,19964,0.589,11.833333333333334,1,10323,4557,Moreland,63,1268,1129500,29021,19964.0
91422,-37.983229,145.048174,21A Mariemont Avenue,BEAUMARIS,TOWONG,19865,1.499,20.61904761904762,1,5041,1732,Bayside,79,1845,1882800,17536,19865.0
45571,-37.690185,145.092799,9 Jarrah Court,GREENSBOROUGH,GLEN EIRA,19985,2.05,22.39189189189189,1,7426,2533,Banyule,83,1524,984000,26045,19985.0
29822,-37.76672363,144.9973145,27 Beavers Road,NORTHCOTE,MURRINDINDI,20015,0.293,13.214285714285714,1,8461,5349,Darebin,69,1563,1630800,21000,20015.0
46963,-37.709104,145.139624,29 Kerrie Crescent,ELTHAM,FRANKSTON,19987,0.875,26.24418604651163,1,6040,1782,Nillumbik,85,1923,1178700,28827,19987.0
77675,-37.928028,145.164918,2/16 Baird Street,MULGRAVE,MACEDON RANGES,19914,2.569,15.875,1,7213,1477,Monash,60,1348,1022600,22093,19914.0
2180,-37.778071,144.881909,34 Fisher Street,MAIDSTONE,BAW BAW,20027,2.477,,0,2995,2208,Maribyrnong,56,1162,843300,19978,20027.0
4374,-37.834808,144.879166,33 Blackshaws Road,NEWPORT,MANSFIELD,19995,0.755,,0,5240,1816,Hobsons Bay,74,1626,1197100,14791,19995.0
5758,-37.78298569,144.8558197,4 Barrie Court,BRAYBROOK,HUME,20022,1.916,7.9523809523809526,1,2822,1654,Maribyrnong,52,792,755400,6573,20022.0
88299,-37.940452,145.058614,84 Bulli St,MOORABBIN,MANSFIELD,19872,1.717,17.015625,1,2571,1673,Kingston,69,1294,1283800,13081,19872.0
14623,-37.74832153,144.8960266,57 Nimmo Street,ESSENDON,NILLUMBIK,20037,1.971,7.5,1,6869,5592,Moonee Valley,81,1571,1550000,22442,20037.0
64680,-37.785075,145.264367,58 Highland Avenue,CROYDON,CARDINIA,19878,1.836,20.65573770491803,1,9705,5573,Maroondah,81,1267,902900,37491,19878.0
68539,-37.853457,145.016946,43 Northcote Road,ARMADALE,BRIMBANK,19945,0.394,7.012987012987013,1,2838,3841,Stonnington,73,1713,1925900,8428,19945.0
44366,-37.687452,145.124714,16 Natasha Close,ST HELENA,SOUTHERN GRAMPIANS,19985,2.341,22.39189189189189,1,800,170,Banyule,83,1524,1163300,26045,19985.0
92661,-38.003236,145.095363,12 Woods Avenue,MORDIALLOC,PORT PHILLIP,19863,0.772,23.207142857142856,1,2949,2322,Kingston,76,1492,1228700,24045,19863.0
77495,-37.931203,145.185942,139 Hansworth St,MULGRAVE,MACEDON RANGES,19891,3.471,17.657587548638134,1,7213,1477,Monash,60,1348,1022600,22093,19891.0
14203,-37.751621,144.92178,29 Brewster Street,ESSENDON,NILLUMBIK,20036,0.497,9.333333333333334,1,6869,5592,Moonee Valley,81,1571,1550000,22442,20036.0
75396,-37.90215,145.066236,7 Dalny Road,MURRUMBEENA,MOIRA,19918,1.287,11.596590909090908,1,2947,2728,Glen Eira,64,1287,1574000,30031,19918.0
54083,-37.823955,145.04241,13 Minona Street,HAWTHORN,YARRA,19903,0.348,6.752380952380952,1,5753,11459,Boroondara,72,1627,2103800,19166,19903.0
64070,-37.808217,145.285162,27 Frederick Street,CROYDON,CARDINIA,19878,1.478,20.65573770491803,1,9705,5573,Maroondah,81,1267,902900,37491,19878.0
42921,-37.729872,145.090019,18 Longacres Road,YALLAMBIE,MAROONDAH,19983,1.888,18.08641975308642,1,1286,81,Banyule,79,1458,998200,12063,19983.0
17768,-37.703546,144.930222,84 Melbourne Avenue,GLENROY,WYNDHAM,20032,1.15,13.76923076923077,1,7882,4021,Moreland,66,1004,743900,27707,20032.0
30949,-37.7550354,144.9850922,212 Harold Street,THORNBURY,LATROBE,20014,1.186,14.2,1,6018,4275,Darebin,63,1275,1361700,16671,20014.0
89977,-37.971147,145.052622,13 Sydney Street,CHELTENHAM,YARRA RANGES,19866,0.529,18.83823529411765,1,8087,5856,Kingston,74,1233,1167300,18907,19866.0
9867,-37.901797,144.633848,8 Dalpura Court,WERRIBEE,LODDON,19921,2.41,,0,14482,4489,Wyndham,77,1470,634600,36356,19921.0
56281,-37.846015,145.132987,18 College Way,BURWOOD,MARIBYRNONG,19897,2.89,13.988304093567251,1,5052,3288,Whitehorse,73,1100,1296800,18501,19897.0
45253,-37.683375,145.126639,52 Sunrise  Drive,GREENSBOROUGH,GLEN EIRA,19985,2.806,22.39189189189189,1,7426,2533,Banyule,83,1524,984000,26045,19985.0
95489,-37.909127,145.046441,30 Lewis Street,MCKINNON,HORSHAM,19940,0.727,13.683333333333334,1,1953,1107,Glen Eira,72,1538,1683800,17630,19940.0
83458,-37.8569603,145.0027008,12/4 Rae Court,PRAHRAN,BOROONDARA,19957,0.943,,0,4230,8324,Stonnington,66,1560,1706800,17776,19957.0
4913,-37.869898,144.826057,146 Queen Street,ALTONA,BRIMBANK,19926,0.439,,0,4843,2394,Hobsons Bay,70,1160,1139500,11742,19926.0
19445,-37.654999,144.931139,42 Ventnor Crescent,COOLAROO,COLAC -OTWAY,44817,0.805,17.375,1,1300,237,Hume,57,867,507200,18590,44817.0
67106,-37.740988,145.349896,17 Glencoe Place,LILYDALE,FRANKSTON,19876,1.629,26.917525773195877,1,5989,2379,Yarra Ranges,82,1284,908900,13615,19876.0
1800,-37.790437,144.881252,14 Suffolk Street,MAIDSTONE,BAW BAW,20023,1.316,7.277777777777778,1,2995,2208,Maribyrnong,56,1162,843300,19978,20023.0
6116,-37.79536438,144.8240967,121 Wright Street,SUNSHINE,KNOX,20021,1.084,11.08411214953271,1,4031,1779,Brimbank,52,929,883700,30677,20021.0
71017,-37.86016846,145.2228241,10 Pacific Close,WANTIRNA,CENTRAL GOLDFIELDS,19871,4.027,17.08910891089109,1,4861,1165,Knox,70,1463,1071300,31889,19871.0
58385,-37.828537,145.159776,9 Rosalind Crescent,BLACKBURN,GREATER GEELONG,19898,1.275,14.05703422053232,1,4821,2501,Whitehorse,75,1387,1485900,27564,19898.0
44048,-37.718291,145.109642,10 Baird Street,GREENSBOROUGH,GLEN EIRA,19986,1.097,23.86,1,7426,2533,Banyule,83,1524,984000,26045,19986.0
23619,-37.64961243,144.9056244,39 Dunfermline Avenue,GREENVALE,HORSHAM,44817,2.202,17.375,1,6480,251,Hume,72,1730,942100,9120,44817.0
8052,-37.762538,144.796597,12 Peppermint Grove,CAIRNLEA,YARRA RANGES,20003,1.272,12.984496124031008,1,2159,192,Brimbank,57,1423,969000,14107,20003.0
8328,-37.74902344,144.7468872,25 Charlesworth Crescent,BURNSIDE,MOYNE,20001,4.673,14.857142857142858,1,1290,343,Melton,57,1423,788300,14107,20001.0
37647,-37.642505,145.045612,61 Derby Drive,EPPING,FRANKSTON,20005,1.753,24.90277777777778,1,13368,3047,Whittlesea,73,1283,673200,19624,20005.0
72611,-37.848223,145.269852,83 Scoresby Road,BAYSWATER,INDIGO,19870,0.738,19.363636363636363,1,4737,3089,Knox,77,1186,865500,19945,19870.0
39068,-37.77333832,145.0485077,9 Locksley Road,IVANHOE,BASS COAST,19933,0.564,14.36241610738255,1,4147,2613,Banyule,77,1709,1560600,14278,19933.0
38323,-37.777807,145.023804,46 Perry Street,FAIRFIELD,NILLUMBIK,19930,0.626,12.693877551020408,1,2113,1694,Darebin,73,1538,1615300,9227,19930.0
90849,-37.96118,145.043826,58 Olympic Avenue,CHELTENHAM,YARRA RANGES,19866,1.122,18.83823529411765,1,8087,5856,Kingston,74,1233,1167300,18907,19866.0
34627,-37.704319,145.0139465,3/39 Pickett Street,RESERVOIR,EAST GIPPSLAND,20009,0.558,19.1,1,16913,8713,Darebin,63,972,861800,45591,20009.0
58198,-37.81340027,145.1489868,51 Stanley Grove,BLACKBURN,GREATER GEELONG,19898,0.748,14.05703422053232,1,4821,2501,Whitehorse,75,1387,1485900,27564,19898.0
61651,-37.775523,145.245626,26 Wellington Park Drive,WARRANWOOD,MACEDON RANGES,19878,3.792,20.65573770491803,1,1338,178,Maroondah,79,1393,1309600,28808,19878.0
68591,-37.85518265,145.0116119,562 Orrong Road,ARMADALE,BRIMBANK,19946,0.531,7.181818181818182,1,2838,3841,Stonnington,73,1713,1925900,8428,19946.0
73192,-37.86183929,145.2667694,2/15 Marville Court,BORONIA,TOWONG,19869,1.556,20.794392523364486,1,8285,4281,Knox,79,1162,832500,20314,19869.0
55744,-37.841598,145.075851,5 Immarna Road,CAMBERWELL,MELBOURNE,19850,0.267,11.181818181818182,1,7459,4358,Boroondara,77,2122,2235400,15537,19850.0
94908,-37.903552,145.052151,16 Wallen Road,ORMOND,MOIRA,19941,1.102,13.927272727272728,1,2378,2357,Glen Eira,72,1538,1746300,17630,19941.0
78386,-37.93845,145.214601,8 Royal Oak Court,MULGRAVE,MACEDON RANGES,19890,4.604,19.260536398467433,1,7213,1477,Monash,60,1348,1022600,22093,19890.0
27208,-37.583626,144.924521,51 Chelsworth Loop,CRAIGIEBURN,YARRA RANGES,40221,2.617,21.0,1,19933,1906,Hume,74,1349,643500,25491,40221.0
5121,-37.863546,144.834485,3 Fisher Court,ALTONA,BRIMBANK,19926,0.585,,0,4843,2394,Hobsons Bay,70,1160,1139500,11742,19926.0
30512,-37.781292,145.000736,93 Westgarth Street,NORTHCOTE,MURRINDINDI,19928,0.152,11.670588235294117,1,8461,5349,Darebin,69,1563,1630800,21000,19928.0
70505,-37.889932,145.095351,13 Cabena Crescent,CHADSTONE,MELTON,19917,1.317,12.085858585858587,1,3244,1608,Monash,65,1234,1217700,12357,19917.0
94376,-37.957176,145.080766,4 Shoreacres Place,HEATHERTON,SOUTH GIPPSLAND,19866,2.53,18.83823529411765,1,1014,463,Kingston,70,1752,1123700,1371,19866.0
83764,-37.8513096,144.9980014,25 York Street,PRAHRAN,BOROONDARA,19958,0.743,,0,4230,8324,Stonnington,66,1560,1706800,17776,19958.0
29797,-37.76781845,144.9851379,25 Zoe Circuit,NORTHCOTE,MURRINDINDI,20016,0.921,13.188811188811188,1,8461,5349,Darebin,69,1563,1630800,21000,20016.0
71777,-37.84989929,145.2417755,7 Whitehaven Street,WANTIRNA,CENTRAL GOLDFIELDS,19871,2.414,17.08910891089109,1,4861,1165,Knox,70,1463,1071300,31889,19871.0
12173,-37.711417,144.780648,11 Hume Drive,DELAHEY,BULOKE,20000,1.279,16.304347826086957,1,2193,541,Brimbank,64,1491,648400,27356,20000.0
26538,-37.57940674,144.9374847,32 Parramatta Walk,CRAIGIEBURN,YARRA RANGES,40221,2.547,21.0,1,19933,1906,Hume,74,1349,643500,25491,40221.0
65273,-37.800234,145.310397,28 Lomond Avenue,KILSYTH,SURF COAST,19877,1.733,22.9618320610687,1,4209,1613,Yarra Ranges,82,1211,813100,12665,19877.0
20438,-37.772144,144.968875,123 Glenlyon Road,BRUNSWICK,MARIBYRNONG,19969,0.948,7.142857142857143,1,8835,8041,Moreland,62,1433,1265800,20155,19969.0
88343,-37.9510381,145.0380248,1/13 Donald Street,HIGHETT,GREATER DANDENONG,19872,0.446,17.015625,1,3939,2524,Bayside,73,1384,1355400,9299,19872.0
60691,-37.84268188,145.187851,31 Timbertop Drive,VERMONT,CENTRAL GOLDFIELDS,19899,2.709,14.655339805825243,1,3636,1030,Whitehorse,71,1459,1186300,20802,19899.0
93703,-37.986277,145.072175,8 Second Street,PARKDALE,STONNINGTON,19865,0.787,20.61904761904762,1,4160,2433,Kingston,76,1492,1341800,24045,19865.0
60487,-37.84181595,145.1959229,15 Lunar Crescent,VERMONT,CENTRAL GOLDFIELDS,19900,2.673,15.882096069868995,1,3636,1030,Whitehorse,71,1459,1186300,20802,19900.0
91538,-37.97782,145.047735,3 Wall Street,BEAUMARIS,TOWONG,19866,1.38,18.83823529411765,1,5041,1732,Bayside,79,1845,1882800,17536,19866.0
24320,-37.708158,144.972824,31 Major Road,FAWKNER,MONASH,19962,1.299,12.785714285714286,1,4754,1266,Moreland,53,865,745500,12899,19962.0
86786,-37.9286908,144.9980423,46 South Road,BRIGHTON,HUME,19950,0.818,,0,8625,6345,Bayside,77,2200,2483600,20135,19950.0
88199,-37.942368,145.046553,38 Grandview Grove,MOORABBIN,MANSFIELD,19872,0.79,17.015625,1,2571,1673,Kingston,69,1294,1283800,13081,19872.0
47850,-37.810174,145.045044,13 Annadale Street,KEW,SOUTH GIPPSLAND,19903,1.363,6.752380952380952,1,8044,6097,Boroondara,73,2022,2332200,21677,19903.0
15393,-37.736276,144.920128,55 Glenview Road,STRATHMORE,KNOX,20034,0.939,11.090909090909092,1,3101,749,Moonee Valley,81,1634,1643800,10591,20034.0
20252,-37.795324,144.971949,93 Kay Street,CARLTON,STRATHBOGIE,19843,1.753,1.0,1,2909,16139,Melbourne,47,633,1480600,10673,19843.0
84699,-37.882241,144.989932,17A Austin Avenue,ELWOOD,MORELAND,19955,0.845,,0,3628,8403,Port Phillip,72,1715,1874000,12829,19955.0
46941,-37.711059,145.171181,27 Onkara Court,ELTHAM,FRANKSTON,19987,2.076,26.24418604651163,1,6040,1782,Nillumbik,85,1923,1178700,28827,19987.0
20677,-37.7627761,144.9499174,182 Hope Street,BRUNSWICK WEST,MARIBYRNONG,19967,0.963,8.11111111111111,1,4431,4309,Moreland,65,1232,1108300,11882,19967.0
87181,-37.906819,144.999565,9 Anne Crescent,BRIGHTON,HUME,19952,0.343,,0,8625,6345,Bayside,77,2200,2483600,20135,19952.0
35180,-37.727898,145.030515,54 Crevelli Street,RESERVOIR,EAST GIPPSLAND,20010,2.407,19.105263157894736,1,16913,8713,Darebin,63,972,861800,45591,20010.0
84414,-37.85309982,144.9964447,84 Hornby Street,WINDSOR,MAROONDAH,19957,0.508,,0,2201,4448,Stonnington,66,1560,1629600,17776,19957.0
17691,-37.69956,144.925668,76 Paget Avenue,GLENROY,WYNDHAM,20032,0.928,13.76923076923077,1,7882,4021,Moreland,66,1004,743900,27707,20032.0
22145,-37.743577,144.950728,181 Munro Street,COBURG,MOONEE VALLEY,19965,1.118,10.909090909090908,1,10323,4557,Moreland,63,1268,1129500,29021,19965.0
17854,-37.6993103,144.9079132,90 Valley Crescent,GLENROY,WYNDHAM,20031,0.84,14.642857142857142,1,7882,4021,Moreland,66,1004,743900,27707,20031.0
70821,-37.882657,145.1033,5 Robert Street,CHADSTONE,MELTON,19840,1.27,,0,3244,1608,Monash,65,1234,1217700,12357,19840.0
77677,-37.937174,145.195532,2/27 Chelsea Avenue,MULGRAVE,MACEDON RANGES,19891,3.588,17.657587548638134,1,7213,1477,Monash,60,1348,1022600,22093,19891.0
70670,-37.880218,145.102838,25 Brindalee Mews,CHADSTONE,MELTON,19840,1.097,,0,3244,1608,Monash,65,1234,1217700,12357,19840.0
46384,-37.718861,145.147671,1/83 Bridge Street,ELTHAM,FRANKSTON,19987,0.591,26.24418604651163,1,6040,1782,Nillumbik,85,1923,1178700,28827,19987.0
84203,-37.852626,145.002968,6 Aberdeen Road,PRAHRAN,BOROONDARA,19947,0.897,6.618181818181818,1,4230,8324,Stonnington,66,1560,1706800,17776,19947.0
123,-37.804475,144.888447,1/148 Pilgrim Street,SEDDON,EAST GIPPSLAND,20024,0.345,6.733333333333333,1,2035,844,Maribyrnong,49,1181,1148600,16926,20024.0
83655,-37.856344,145.000864,2/13 Wrexham Road,WINDSOR,MAROONDAH,19957,0.777,,0,2201,4448,Stonnington,66,1560,1629600,17776,19957.0
36472,-37.6609726,145.0205078,482 Station Street,LALOR,KINGSTON,20006,0.617,22.956521739130434,1,8358,1216,Whittlesea,52,919,678600,20717,20006.0
45493,-37.700698,145.123431,8 Greenview Court,GREENSBOROUGH,GLEN EIRA,19985,1.386,22.39189189189189,1,7426,2533,Banyule,83,1524,984000,26045,19985.0
95136,-37.915572,145.044425,20 Strathmore Street,BENTLEIGH,HOBSONS BAY,19939,0.684,14.476923076923077,1,5799,3228,Glen Eira,72,1538,1649200,17630,19939.0
66529,-37.777329,145.318123,5a Wyuna Walk,MOOROOLBARK,WEST WIMMERA,19877,0.967,22.9618320610687,1,7655,1413,Yarra Ranges,80,1360,874500,18998,19877.0
4798,-37.855814,144.821862,1/63 McIntyre Drive,ALTONA,BRIMBANK,19925,1.274,,0,4843,2394,Hobsons Bay,70,1160,1139500,11742,19925.0
14765,-37.746027,144.89462,72 Bradshaw Street,ESSENDON,NILLUMBIK,20037,2.2,7.5,1,6869,5592,Moonee Valley,81,1571,1550000,22442,20037.0
46017,-37.712973,145.122594,3/63 Mountain View Road,MONTMORENCY,PORT PHILLIP,19986,0.275,23.86,1,3368,1434,Banyule,87,1457,1111000,8154,19986.0
78409,-37.9293594,145.2016431,83 Grantham Terrace,MULGRAVE,MACEDON RANGES,19891,4.554,17.657587548638134,1,7213,1477,Monash,60,1348,1022600,22093,19891.0
48675,-37.800475,145.044032,7 Childers Street,KEW,SOUTH GIPPSLAND,19904,2.43,6.0,1,8044,6097,Boroondara,73,2022,2332200,21677,19904.0
19692,-37.68006516,144.8898468,3 Swaith Court,WESTMEADOWS,LODDON,20030,2.643,15.533333333333333,1,2446,596,Hume,74,1388,684900,8623,20030.0
3512,-37.818745,144.874078,41 Freeman Street,YARRAVILLE,MITCHELL,19996,1.431,,0,5855,2072,Maribyrnong,67,1583,1148100,11645,19996.0
15933,-37.707176,144.882502,13 Banksia Grove,TULLAMARINE,CENTRAL GOLDFIELDS,20032,3.072,13.76923076923077,1,3164,2016,Hume,65,1150,706000,16710,20032.0
44388,-37.719209,145.106496,167 Hickling Avenue,GREENSBOROUGH,GLEN EIRA,19986,1.392,23.86,1,7426,2533,Banyule,83,1524,984000,26045,19986.0
29296,-37.774581,145.011422,116 Victoria Road,NORTHCOTE,MURRINDINDI,19929,0.584,12.136363636363637,1,8461,5349,Darebin,69,1563,1630800,21000,19929.0
61467,-37.800793,145.235234,2 Berea Court,RINGWOOD,MACEDON RANGES,19902,1.768,16.388235294117646,1,6350,4648,Maroondah,79,1393,1024000,28808,19902.0
74897,-37.883213,145.045614,26 Derby Crescent,CAULFIELD EAST,WHITEHORSE,19943,0.696,9.525114155251142,1,490,537,Glen Eira,76,1663,1382800,13712,19943.0
1341,-37.804357,144.891455,7 Alexander Street,SEDDON,EAST GIPPSLAND,20024,0.206,6.733333333333333,1,2035,844,Maribyrnong,49,1181,1148600,16926,20024.0
21728,-37.749857,144.970666,10  Coburg Street,COBURG,MOONEE VALLEY,19966,0.933,10.0,1,10323,4557,Moreland,63,1268,1129500,29021,19966.0
63556,-37.807058,145.273038,14-16 Fortuna Avenue,CROYDON,CARDINIA,19878,1.455,20.65573770491803,1,9705,5573,Maroondah,81,1267,902900,37491,19878.0
64454,-37.807234,145.270533,4/66 Bayswater Road,CROYDON,CARDINIA,19878,1.584,20.65573770491803,1,9705,5573,Maroondah,81,1267,902900,37491,19878.0
46565,-37.70100021,145.1621399,13 Ridgeview Street,ELTHAM,FRANKSTON,19987,1.882,26.24418604651163,1,6040,1782,Nillumbik,85,1923,1178700,28827,19987.0
23605,-37.641958,144.902118,36 Clare Boulevard,GREENVALE,HORSHAM,40220,2.963,18.235294117647058,1,6480,251,Hume,72,1730,942100,9120,40220.0
55008,-37.838603,145.068352,13 Lyric Grove,CAMBERWELL,MELBOURNE,19851,0.364,10.3,1,7459,4358,Boroondara,77,2122,2235400,15537,19851.0
33622,-37.693116,144.978053,11 Sheargold Court,RESERVOIR,EAST GIPPSLAND,19961,1.887,13.8,1,16913,8713,Darebin,63,972,861800,45591,19961.0
79865,-38.00057983,145.1466522,2 Stanford Avenue,KEYSBOROUGH,KINGSTON,19890,4.565,19.260536398467433,1,9761,1578,Greater Dandenong,49,1253,1006400,16492,19890.0
44485,-37.699435,145.109439,19 St Helena Road,GREENSBOROUGH,GLEN EIRA,19985,0.514,22.39189189189189,1,7426,2533,Banyule,83,1524,984000,26045,19985.0
84502,-37.869161,144.99179,26 Marlborough Street,BALACLAVA,DAREBIN,19956,0.156,,0,1403,2485,Port Phillip,63,1449,1462600,17374,19956.0
51015,-37.795982,145.120812,2/8-10 Malcolm Crescent,DONCASTER,MORELAND,20042,2.588,11.86808510638298,1,7598,4243,Manningham,58,1242,1446200,17447,20042.0
41790,-37.730212,145.098794,2 Meskill Cresent,VIEWBANK,MANNINGHAM,19984,2.518,19.841726618705035,1,2434,356,Banyule,77,1551,1147300,21826,19984.0
2973,-37.81463242,144.8818817,18 Kingston Street,YARRAVILLE,MITCHELL,19996,0.721,,0,5855,2072,Maribyrnong,67,1583,1148100,11645,19996.0
86915,-37.906611,144.995157,59 Outer Crescent,BRIGHTON,HUME,19952,0.682,,0,8625,6345,Bayside,77,2200,2483600,20135,19952.0
58549,-37.808055,145.17173,120 Junction Road,NUNAWADING,STONNINGTON,19899,1.424,14.655339805825243,1,4033,2270,Whitehorse,70,1202,1171100,20796,19899.0
28732,-37.800237,144.989039,92 Perry Street,COLLINGWOOD,MOONEE VALLEY,19975,0.491,8.23076923076923,1,2122,4470,Yarra,60,1278,1275000,5113,19975.0
4404,-37.829182,144.872748,38 Kernot Street,SOUTH KINGSVILLE,WELLINGTON,19995,1.171,,0,826,527,Hobsons Bay,74,1626,979800,14791,19995.0
77396,-37.933033,145.205929,104 Portland Street,MULGRAVE,MACEDON RANGES,19890,4.579,19.260536398467433,1,7213,1477,Monash,60,1348,1022600,22093,19890.0
18744,-37.693193,144.917335,35 Waverley Street,BROADMEADOWS,WODONGA,20031,0.252,14.642857142857142,1,4395,1983,Hume,58,762,565700,18510,20031.0
73761,-37.860706,145.277042,5 Conway Court,BORONIA,TOWONG,19869,0.646,20.794392523364486,1,8285,4281,Knox,79,1162,832500,20314,19869.0
68141,-37.844905,145.00846,55 Fairbairn Road,TOORAK,MANNINGHAM,19947,0.556,6.618181818181818,1,4088,5974,Stonnington,72,1977,2752300,12797,19947.0
45913,-37.71894836,145.1140289,2 Rattray Road,MONTMORENCY,PORT PHILLIP,19986,0.775,23.86,1,3368,1434,Banyule,87,1457,1111000,8154,19986.0
73214,-37.86381149,145.2779694,2/26 Stonehaven Avenue,BORONIA,TOWONG,19869,0.677,20.794392523364486,1,8285,4281,Knox,79,1162,832500,20314,19869.0
28983,-37.809376,144.995639,30/11 Nicholson Street,ABBOTSFORD,BANYULE,19977,0.299,7.448979591836735,1,2304,4706,Yarra,68,1797,1299400,4025,19977.0
34439,-37.70440292,145.0248261,26 Banff St,RESERVOIR,EAST GIPPSLAND,20009,1.403,19.1,1,16913,8713,Darebin,63,972,861800,45591,20009.0
22780,-37.749484,144.971435,41 Hardwick Street,COBURG,MOONEE VALLEY,19966,1.013,10.0,1,10323,4557,Moreland,63,1268,1129500,29021,19966.0
26282,-37.59237289,144.9315949,29 Lee Street,CRAIGIEBURN,YARRA RANGES,40221,1.475,21.0,1,19933,1906,Hume,74,1349,643500,25491,40221.0
82242,-37.99717331,145.2282105,5 Claredale Road,DOVETON,HINDMARSH,19888,1.809,22.110294117647058,1,3150,953,Casey,59,819,602200,9801,19888.0
64294,-37.79450226,145.2553101,33 Grayling Crescent,CROYDON,CARDINIA,19879,1.996,18.088709677419356,1,9705,5573,Maroondah,81,1267,902900,37491,19879.0
65807,-37.779389,145.321154,15 Struan Avenue,MOOROOLBARK,WEST WIMMERA,19877,0.974,22.9618320610687,1,7655,1413,Yarra Ranges,80,1360,874500,18998,19877.0
75273,-37.890505,145.070318,516 Neerim Road,MURRUMBEENA,MOIRA,19919,0.261,11.254658385093167,1,2947,2728,Glen Eira,64,1287,1574000,30031,19919.0
73806,-37.86835098,145.2960053,52 Daffodil Road,BORONIA,TOWONG,19869,1.348,20.794392523364486,1,8285,4281,Knox,79,1162,832500,20314,19869.0
6130,-37.780966,144.840816,13 Andrew Street,SUNSHINE,KNOX,20021,1.094,11.08411214953271,1,4031,1779,Brimbank,52,929,883700,30677,20021.0
49459,-37.80588531,145.0787811,38 Yongala Street,BALWYN,HOBSONS BAY,19893,2.082,9.46875,1,4589,2796,Boroondara,71,1563,2551100,13849,19893.0
91372,-37.99237061,145.0368042,2 Comport Street,BEAUMARIS,TOWONG,19865,2.749,20.61904761904762,1,5041,1732,Bayside,79,1845,1882800,17536,19865.0
65153,-37.807939,145.304562,16 COSMO COURT,KILSYTH,SURF COAST,19878,2.526,20.65573770491803,1,4209,1613,Yarra Ranges,82,1211,813100,12665,19878.0
39018,-37.75784683,145.0347138,75 Jellicoe Street,IVANHOE,BASS COAST,19933,1.55,14.36241610738255,1,4147,2613,Banyule,77,1709,1560600,14278,19933.0
60953,-37.8366708,145.1914044,81 Park Drive,VERMONT,CENTRAL GOLDFIELDS,19900,2.078,15.882096069868995,1,3636,1030,Whitehorse,71,1459,1186300,20802,19900.0
44131,-37.697583,145.13214,11 Macka Avenue,GREENSBOROUGH,GLEN EIRA,19986,2.183,23.86,1,7426,2533,Banyule,83,1524,984000,26045,19986.0
67710,-37.77464,145.354793,8 The Ridge,LILYDALE,FRANKSTON,19876,2.218,26.917525773195877,1,5989,2379,Yarra Ranges,82,1284,908900,13615,19876.0
17176,-37.714029,144.951644,4 Bond Street,HADFIELD,WYNDHAM,19962,0.787,12.785714285714286,1,2326,712,Moreland,66,1004,805000,27707,19962.0
88160,-37.939377,145.044466,24 Ashlar road,MOORABBIN,MANSFIELD,19937,0.879,16.14074074074074,1,2571,1673,Kingston,69,1294,1283800,13081,19937.0
83935,-37.84971619,144.989212,36A Charles Street,PRAHRAN,BOROONDARA,19958,0.061,,0,4230,8324,Stonnington,66,1560,1706800,17776,19958.0
23764,-37.638593,144.905381,7 Cramond Place,GREENVALE,HORSHAM,40220,2.647,18.235294117647058,1,6480,251,Hume,72,1730,942100,9120,40220.0
88733,-37.951268,145.026084,28 Noyes Street,HIGHETT,GREATER DANDENONG,19872,1.422,17.015625,1,3939,2524,Bayside,73,1384,1355400,9299,19872.0
42702,-37.737394,145.062863,96 Grandview Grove,ROSANNA,EAST GIPPSLAND,19936,0.675,16.403973509933774,1,3073,1156,Banyule,77,1551,1192000,21826,19936.0
84140,-37.855249,145.004436,52 Banole Avenue,PRAHRAN,BOROONDARA,19946,0.97,7.181818181818182,1,4230,8324,Stonnington,66,1560,1706800,17776,19946.0
1700,-37.823922,144.841413,12 Carlsson Court,BROOKLYN,WANGARATTA,20022,3.336,7.9523809523809526,1,1077,551,Hobsons Bay,56,1162,701800,19978,20022.0
4345,-37.84223,144.868885,3/11 Maddox Road,NEWPORT,MANSFIELD,19994,1.295,,0,5240,1816,Hobsons Bay,74,1626,1197100,14791,19994.0
51264,-37.775525,145.131632,32 Henry Street,DONCASTER,MORELAND,20042,4.946,11.86808510638298,1,7598,4243,Manningham,58,1242,1446200,17447,20042.0
39323,-37.699715,145.068071,1 Walden Court,BUNDOORA,WODONGA,19984,1.866,19.841726618705035,1,8943,3243,Whittlesea,69,1172,876900,24119,19984.0
67519,-37.742948,145.348418,5 Comic Court,LILYDALE,FRANKSTON,19876,1.401,26.917525773195877,1,5989,2379,Yarra Ranges,82,1284,908900,13615,19876.0
72136,-37.85865402,145.2628021,2 Edinburgh Road,BAYSWATER,INDIGO,19869,1.907,20.794392523364486,1,4737,3089,Knox,77,1186,865500,19945,19869.0
24648,-37.678561,144.962773,124 Somerset Road,CAMPBELLFIELD,STRATHBOGIE,19960,1.982,16.6875,1,2830,1163,Hume,48,786,588600,5480,19960.0
80947,-37.979124,145.223305,2 Burrows Avenue,DANDENONG,CARDINIA,19888,1.696,22.110294117647058,1,8074,9600,Greater Dandenong,48,899,685100,45248,19888.0
31993,-37.739889,145.012398,16 Martin Street,PRESTON,BOROONDARA,20012,1.054,16.176470588235293,1,11418,7672,Darebin,63,1155,1075700,27067,20012.0
94984,-37.917504,145.044068,18 Ross Street,BENTLEIGH,HOBSONS BAY,19939,0.621,14.476923076923077,1,5799,3228,Glen Eira,72,1538,1649200,17630,19939.0
35281,-37.70859528,145.007721,6 Broadhurst Avenue,RESERVOIR,EAST GIPPSLAND,20009,0.176,19.1,1,16913,8713,Darebin,63,972,861800,45591,20009.0
24314,-37.70370865,144.9739227,31 Elsa Street,FAWKNER,MONASH,19961,1.368,13.8,1,4754,1266,Moreland,53,865,745500,12899,19961.0
36088,-37.665986,145.027491,1/21 Cherry Court,LALOR,KINGSTON,20006,0.908,22.956521739130434,1,8358,1216,Whittlesea,52,919,678600,20717,20006.0
90393,-37.960897,145.045711,26 Stuart Avenue,CHELTENHAM,YARRA RANGES,19866,1.006,18.83823529411765,1,8087,5856,Kingston,74,1233,1167300,18907,19866.0
22181,-37.739671,144.96189,19 Service Street,COBURG,MOONEE VALLEY,19965,0.324,10.909090909090908,1,10323,4557,Moreland,63,1268,1129500,29021,19965.0
26811,-37.574409,144.930406,4 Lilac Close,CRAIGIEBURN,YARRA RANGES,40221,3.257,21.0,1,19933,1906,Hume,74,1349,643500,25491,40221.0
36816,-37.657003,145.037764,13 Jeffrey Court,EPPING,FRANKSTON,20005,0.847,24.90277777777778,1,13368,3047,Whittlesea,73,1283,673200,19624,20005.0
12467,-37.700978,144.744348,18 David Circuit,HILLSIDE,GREATER DANDENONG,20000,2.628,16.304347826086957,1,4717,798,Melton,64,1491,867300,27356,20000.0
71123,-37.841529,145.226343,14 Bellbird Drive,WANTIRNA,CENTRAL GOLDFIELDS,19871,2.174,17.08910891089109,1,4861,1165,Knox,70,1463,1071300,31889,19871.0
32923,-37.735725,145.020299,51 Gordon Grove,PRESTON,BOROONDARA,20011,1.745,17.166666666666668,1,11418,7672,Darebin,63,1155,1075700,27067,20011.0
17072,-37.711405,144.924185,33 Bayview Road,GLENROY,WYNDHAM,20033,0.765,12.916666666666666,1,7882,4021,Moreland,66,1004,743900,27707,20033.0
43721,-37.7117,145.077511,31 Kenmare Street,WATSONIA,MANNINGHAM,19984,0.559,19.841726618705035,1,2191,614,Banyule,82,1300,879500,8932,19984.0
15647,-37.73670578,144.8874207,27 Hotham Road,NIDDRIE,MANSFIELD,20036,3.174,9.333333333333334,1,2198,1140,Moonee Valley,69,1204,1148000,13979,20036.0
34434,-37.71663284,144.9961243,25 Willoughby Street,RESERVOIR,EAST GIPPSLAND,20010,0.958,19.105263157894736,1,16913,8713,Darebin,63,972,861800,45591,20010.0
31870,-37.742062,145.016716,139 Gower Street,PRESTON,BOROONDARA,20012,1.475,16.176470588235293,1,11418,7672,Darebin,63,1155,1075700,27067,20012.0
76330,-37.89955902,145.0778656,6 Kelvinside Street,HUGHESDALE,BASS COAST,19918,0.521,11.596590909090908,1,2268,2190,Monash,65,1340,1374600,16280,19918.0
69351,-37.86171722,145.0942993,1 Edmonds Avenue,ASHWOOD,DAREBIN,19848,1.139,13.0,1,2378,1176,Monash,73,1469,1436500,12420,19848.0
117,-37.800355,144.892281,1 Windsor Street,FOOTSCRAY,WHITTLESEA,20024,0.25,6.733333333333333,1,5286,6864,Maribyrnong,49,1181,869400,16926,20024.0
50307,-37.779045,145.096014,57 Estelle Street,BULLEEN,MARIBYRNONG,19935,3.956,15.848101265822784,1,4269,979,Manningham,58,1225,1322600,10590,19935.0
68519,-37.862106,145.019892,4 Kooyong Road,ARMADALE,BRIMBANK,19945,0.631,7.012987012987013,1,2838,3841,Stonnington,73,1713,1925900,8428,19945.0
9516,-37.856654,144.724398,4 Dromana Way,TRUGANINA,CENTRAL GOLDFIELDS,46468,2.503,,0,12111,961,Wyndham,74,1402,680500,39324,46468.0
76819,-37.917995,145.139009,39 Dennis Street,CLAYTON,HINDMARSH,19915,1.785,14.25108225108225,1,5171,5343,Monash,48,962,1017200,18901,19915.0
7612,-37.72896,144.823537,7 Betson Court,KEALBA,BASS COAST,20001,2.624,14.857142857142858,1,1111,142,Brimbank,46,907,704200,54005,20001.0
71333,-37.851518,145.224471,25 Linsley Way,WANTIRNA,CENTRAL GOLDFIELDS,19871,3.128,17.08910891089109,1,4861,1165,Knox,70,1463,1071300,31889,19871.0
57094,-37.82637024,145.0830841,18 Wattle Valley Road,CANTERBURY,MELBOURNE,19893,0.266,9.46875,1,2781,1325,Boroondara,80,2352,2875800,7418,19893.0
43052,-37.719112,145.058162,28 Heritage Court,MACLEOD,WANGARATTA,19983,1.235,18.08641975308642,1,3511,1718,Banyule,79,1458,1123400,12063,19983.0
2232,-37.784303,144.874694,39 Spurling Street,MAIDSTONE,BAW BAW,20022,1.959,7.9523809523809526,1,2995,2208,Maribyrnong,56,1162,843300,19978,20022.0
86700,-37.899705,144.99489,4 Downes Avenue,BRIGHTON,HUME,19953,0.881,,0,8625,6345,Bayside,77,2200,2483600,20135,19953.0
6068,-37.784921,144.826242,11/4 Forrest Street,ALBION,MOIRA,20021,0.709,11.08411214953271,1,1389,1392,Brimbank,52,929,739100,30677,20021.0
67058,-37.753339,145.337487,15 Baker Street,LILYDALE,FRANKSTON,19876,0.932,26.917525773195877,1,5989,2379,Yarra Ranges,82,1284,908900,13615,19876.0
18772,-37.667867,144.936075,37 Warragul Street,DALLAS,MOORABOOL,19960,0.961,16.6875,1,2207,315,Hume,58,762,514300,18510,19960.0
60255,-37.82463074,145.1965332,76 Creek Road,MITCHAM,PORT PHILLIP,19900,0.839,15.882096069868995,1,5802,3089,Whitehorse,76,1424,1128700,14482,19900.0
50094,-37.761451,145.09056,27 Warringal Street,BULLEEN,MARIBYRNONG,19935,2.674,15.848101265822784,1,4269,979,Manningham,58,1225,1322600,10590,19935.0
8682,-37.76673,144.777274,81 Gurnung Drive,CAIRNLEA,YARRA RANGES,20003,3.022,12.984496124031008,1,2159,192,Brimbank,57,1423,969000,14107,20003.0
31008,-37.760266,145.017085,249 Raleigh Street,THORNBURY,LATROBE,20014,1.73,14.2,1,6018,4275,Darebin,63,1275,1361700,16671,20014.0
34435,-37.726599,145.019007,25A Home Street,RESERVOIR,EAST GIPPSLAND,20011,1.443,17.166666666666668,1,16913,8713,Darebin,63,972,861800,45591,20011.0
52402,-37.818859,144.993436,15 Union Street,RICHMOND,EAST GIPPSLAND,19978,0.47,7.690476190476191,1,8875,13869,Yarra,65,1731,1389100,24112,19978.0
30425,-37.77542877,144.9930267,8 Park Street,NORTHCOTE,MURRINDINDI,20017,0.269,12.287878787878787,1,8461,5349,Darebin,69,1563,1630800,21000,20017.0
32103,-37.741479,145.014676,184 Gower Street,PRESTON,BOROONDARA,20012,1.284,16.176470588235293,1,11418,7672,Darebin,63,1155,1075700,27067,20012.0
66726,-37.780675,145.331424,8 Lancaster Road,MOOROOLBARK,WEST WIMMERA,19877,1.734,22.9618320610687,1,7655,1413,Yarra Ranges,80,1360,874500,18998,19877.0
95862,-37.907972,145.041909,49 Murray Road,ORMOND,MOIRA,19940,0.41,13.683333333333334,1,2378,2357,Glen Eira,72,1538,1746300,17630,19940.0
77236,-37.942957,145.106609,4 Newlands Court,CLARINDA,BULOKE,19915,2.373,14.25108225108225,1,2271,640,Kingston,44,1116,1012900,19027,19915.0
73880,-37.84643173,145.3012085,6 Southern Aurora Place,BORONIA,TOWONG,19869,2.15,20.794392523364486,1,8285,4281,Knox,79,1162,832500,20314,19869.0
59347,-37.828058,145.207445,12 Davison Street,MITCHAM,PORT PHILLIP,19901,1.123,15.935622317596566,1,5802,3089,Whitehorse,76,1424,1128700,14482,19901.0
88194,-37.939652,145.059706,32 Marrbridge Road,MOORABBIN,MANSFIELD,19872,1.845,17.015625,1,2571,1673,Kingston,69,1294,1283800,13081,19872.0
10705,-37.79283905,144.9238434,6 Belmont Road,KENSINGTON,SOUTH GIPPSLAND,20041,0.597,5.0,1,3940,4804,Melbourne,62,1401,1202200,14523,20041.0
85839,-37.88973999,145.0055237,8 Orrong Road,ELSTERNWICK,MORELAND,19954,0.688,,0,3005,3427,Glen Eira,69,1497,1859300,10824,19954.0
89711,-37.945899,145.007755,9 Susan Street,SANDRINGHAM,PYRENEES,19948,0.567,,0,3340,2563,Bayside,79,1836,1785000,8146,19948.0
9926,-37.781151,144.923191,100 Canterbury Street,FLEMINGTON,WHITTLESEA,20039,0.662,5.666666666666667,1,1877,3086,Moonee Valley,62,1401,1069400,14523,20039.0
34319,-37.708298,145.006045,22 Broadhurst Avenue,RESERVOIR,EAST GIPPSLAND,20009,0.309,19.1,1,16913,8713,Darebin,63,972,861800,45591,20009.0
73005,-37.867606,145.269373,15 Wells Avenue,BORONIA,TOWONG,19869,1.541,20.794392523364486,1,8285,4281,Knox,79,1162,832500,20314,19869.0
62304,-37.819781,145.228613,8 Ellison Street,RINGWOOD,MACEDON RANGES,19902,0.435,16.388235294117646,1,6350,4648,Maroondah,79,1393,1024000,28808,19902.0
